[{"address": "4331 Credit Union Drive", "city": "Anchorage", "country": "US", "id": "94069", "latitude": 61.181281, "longitude": -149.887931, "name": "Applebee's", "phone_number": "907-222-7753", "state": "AK", "zip_code": "99503"}, {"address": "1331 Hwy. 72 East", "city": "Athens", "country": "US", "id": "95010", "latitude": 34.784109, "longitude": -86.941134, "name": "Applebee's", "phone_number": "256-233-4430", "state": "AL", "zip_code": "35611"}, {"address": "1627-34 Opelika Road", "city": "Auburn", "country": "US", "id": "84037", "latitude": 32.625325, "longitude": -85.446223, "name": "Applebee's", "phone_number": "334-887-7747", "state": "AL", "zip_code": "36830"}, {"address": "5050 Academy Lane", "city": "Bessemer", "country": "US", "id": "94048", "latitude": 33.364607, "longitude": -87.003546, "name": "Applebee's", "phone_number": "205-424-5255", "state": "AL", "zip_code": "35022"}, {"address": "2246 Bessemer Road", "city": "Birmingham", "country": "US", "id": "75096", "latitude": 33.49687, "longitude": -86.87666, "name": "Applebee's", "phone_number": "205-451-1031", "state": "AL", "zip_code": "35208"}, {"address": "1600 Huffman Road", "city": "Center Point", "country": "US", "id": "99080", "latitude": 33.627868, "longitude": -86.686369, "name": "Applebee's", "phone_number": "205-853-3200", "state": "AL", "zip_code": "35215"}, {"address": "89 Chesser Plantation Lane", "city": "Chelsea", "country": "US", "id": "77071", "latitude": 33.350508, "longitude": -86.614548, "name": "Applebee's", "phone_number": "205-678-8800", "state": "AL", "zip_code": "35043"}, {"address": "2106 Cherokee Ave SW", "city": "Cullman", "country": "US", "id": "77099", "latitude": 34.14255, "longitude": -86.848016, "name": "Applebee's", "phone_number": "256-736-6336", "state": "AL", "zip_code": "35055"}, {"address": "2041-A Beltline Road, SW", "city": "Decatur", "country": "US", "id": "89038", "latitude": 34.579041, "longitude": -87.020582, "name": "Applebee's", "phone_number": "256-340-0114", "state": "AL", "zip_code": "35601"}, {"address": "3050 Ross Clark Circle, S.W.", "city": "Dothan", "country": "US", "id": "87039", "latitude": 31.224199, "longitude": -85.431618, "name": "Applebee's", "phone_number": "334-793-7800", "state": "AL", "zip_code": "36301"}, {"address": "2271 Florence Blvd", "city": "Florence", "country": "US", "id": "94013", "latitude": 34.82746, "longitude": -87.641417, "name": "Applebee's", "phone_number": "256-764-7644", "state": "AL", "zip_code": "35630"}, {"address": "2409 S. McKenzie Street", "city": "Foley", "country": "US", "id": "94074", "latitude": 30.378961, "longitude": -87.682218, "name": "Applebee's", "phone_number": "251-943-6006", "state": "AL", "zip_code": "36535"}, {"address": "111 Airport Road West", "city": "Fort Payne", "country": "US", "id": "78075", "latitude": 34.4386805, "longitude": -85.7515009, "name": "Applebee's", "phone_number": "(256) 273-5245", "state": "AL", "zip_code": "35968"}, {"address": "1250 Boots Blvd", "city": "Fultondale", "country": "US", "id": "76078", "latitude": 33.610818935001, "longitude": -86.8014622399032, "name": "Applebee's", "phone_number": "205-380-8282", "state": "AL", "zip_code": "35068"}, {"address": "1722 Rainbow Drive", "city": "Gadsden", "country": "US", "id": "88013", "latitude": 33.980512, "longitude": -86.006368, "name": "Applebee's", "phone_number": "256-546-7774", "state": "AL", "zip_code": "35901"}, {"address": "11950 Hwy. 431 South", "city": "Guntersville", "country": "US", "id": "95035", "latitude": 34.303118, "longitude": -86.279829, "name": "Applebee's", "phone_number": "256-878-9903", "state": "AL", "zip_code": "35976"}, {"address": "2933 John Hawkins Pkwy", "city": "Hoover", "country": "US", "id": "97029", "latitude": 33.368997, "longitude": -86.819631, "name": "Applebee's", "phone_number": "205-444-1102", "state": "AL", "zip_code": "35244"}, {"address": "3028 Memorial Pkwy SW", "city": "Huntsville", "country": "US", "id": "86087", "latitude": 34.701795, "longitude": -86.587386, "name": "Applebee's", "phone_number": "256-881-8111", "state": "AL", "zip_code": "35801"}, {"address": "3150 Memorial Parkway NW", "city": "Huntsville", "country": "US", "id": "96026", "latitude": 34.766169, "longitude": -86.587094, "name": "Applebee's", "phone_number": "256-859-4200", "state": "AL", "zip_code": "35810"}, {"address": "302 Hughes Road", "city": "Madison", "country": "US", "id": "89069", "latitude": 34.70724, "longitude": -86.742562, "name": "Applebee's", "phone_number": "256-772-3441", "state": "AL", "zip_code": "35758"}, {"address": "3001 Carter Hill Road", "city": "Montgomery", "country": "US", "id": "89076", "latitude": 32.352049, "longitude": -86.263181, "name": "Applebee's", "phone_number": "334-264-9064", "state": "AL", "zip_code": "36111"}, {"address": "3195 Taylor Road", "city": "Montgomery", "country": "US", "id": "94000", "latitude": 32.336409, "longitude": -86.178454, "name": "Applebee's", "phone_number": "334-274-0009", "state": "AL", "zip_code": "36116"}, {"address": "6601 Atlanta Highway", "city": "Montgomery", "country": "US", "id": "99077", "latitude": 32.38294, "longitude": -86.181795, "name": "Applebee's", "phone_number": "334-396-0500", "state": "AL", "zip_code": "36117"}, {"address": "612 Hamric Dr E", "city": "Oxford", "country": "US", "id": "84049", "latitude": 33.610005, "longitude": -85.825612, "name": "Applebee's", "phone_number": "256-835-2434", "state": "AL", "zip_code": "36203"}, {"address": "1688 U.S. Hwy. 231 South", "city": "Ozark", "country": "US", "id": "95033", "latitude": 31.442018, "longitude": -85.650029, "name": "Applebee's", "phone_number": "334-445-0098", "state": "AL", "zip_code": "36360"}, {"address": "360 Cahaba Valley Rd", "city": "Pelham", "country": "US", "id": "90058", "latitude": 33.333659, "longitude": -86.785135, "name": "Applebee's", "phone_number": "205-982-1022", "state": "AL", "zip_code": "35124"}, {"address": "2090 Highway 280/431", "city": "Phenix City", "country": "US", "id": "84084", "latitude": 32.481529, "longitude": -85.030027, "name": "Applebee's", "phone_number": "334-448-2500", "state": "AL", "zip_code": "36867"}, {"address": "1917 Cobbs Ford Road", "city": "Prattville", "country": "US", "id": "93070", "latitude": 32.460616, "longitude": -86.414631, "name": "Applebee's", "phone_number": "334-361-8899", "state": "AL", "zip_code": "36066"}, {"address": "4711 Norrell Drive", "city": "Trussville", "country": "US", "id": "94051", "latitude": 33.640622, "longitude": -86.61399, "name": "Applebee's", "phone_number": "205-661-0607", "state": "AL", "zip_code": "35173"}, {"address": "1701 McFarland Blvd. East", "city": "Tuscaloosa", "country": "US", "id": "95032", "latitude": 33.194799, "longitude": -87.523675, "name": "Applebee's", "phone_number": "205-633-0900", "state": "AL", "zip_code": "35404"}, {"address": "17348 Interstate 30", "city": "Benton", "country": "US", "id": "99061", "latitude": 34.5804, "longitude": -92.58006, "name": "Applebee's", "phone_number": "501-778-4114", "state": "AR", "zip_code": "72019"}, {"address": "2133 N. West Ave.", "city": "El Dorado", "country": "US", "id": "95023", "latitude": 33.231707, "longitude": -92.665208, "name": "Applebee's", "phone_number": "870-881-9600", "state": "AR", "zip_code": "71730"}, {"address": "4078 N. College", "city": "Fayetteville", "country": "US", "id": "91046", "latitude": 36.125525, "longitude": -94.144044, "name": "Applebee's", "phone_number": "479-442-8841", "state": "AR", "zip_code": "72703"}, {"address": "6818 Rogers Avenue", "city": "Ft. Smith", "country": "US", "id": "88052", "latitude": 35.354432, "longitude": -94.356053, "name": "Applebee's", "phone_number": "479-452-4112", "state": "AR", "zip_code": "72903"}, {"address": "4426 Central Avenue", "city": "Hot Springs", "country": "US", "id": "89037", "latitude": 34.452084, "longitude": -93.07693, "name": "Applebee's", "phone_number": "501-525-2774", "state": "AR", "zip_code": "71913"}, {"address": "12110 Chenal Parkway", "city": "Little Rock", "country": "US", "id": "90015", "latitude": 34.750027, "longitude": -92.408826, "name": "Applebee's", "phone_number": "501-954-8444", "state": "AR", "zip_code": "72211"}, {"address": "4333 Warden Road", "city": "North Little Rock", "country": "US", "id": "88002", "latitude": 34.795355, "longitude": -92.221286, "name": "Applebee's", "phone_number": "501-791-3300", "state": "AR", "zip_code": "72116"}, {"address": "528 N 47th Street", "city": "Rogers", "country": "US", "id": "82084", "latitude": 36.3393, "longitude": -94.1816, "name": "Applebee's", "phone_number": "479-936-8989", "state": "AR", "zip_code": "72756"}, {"address": "3953 W. Sunset Avenue", "city": "Springdale", "country": "US", "id": "75029", "latitude": 36.174578, "longitude": -94.174151, "name": "Applebee's", "phone_number": "479-751-9844", "state": "AR", "zip_code": "72762"}, {"address": "208 West Service Road", "city": "West Memphis", "country": "US", "id": "81088", "latitude": 35.1685, "longitude": -90.188067, "name": "Applebee's", "phone_number": "870-735-4029", "state": "AR", "zip_code": "72301"}, {"address": "5880 W. Peoria Ave.", "city": "Glendale", "country": "US", "id": "91076", "latitude": 33.582484, "longitude": -112.185713, "name": "Applebee's", "phone_number": "623-878-3500", "state": "AZ", "zip_code": "85302"}, {"address": "9330 W. Northern Ave.", "city": "Glendale", "country": "US", "id": "98071", "latitude": 33.552166, "longitude": -112.260044, "name": "Applebee's", "phone_number": "623-877-4885", "state": "AZ", "zip_code": "85305"}, {"address": "13832 W. McDowell Road", "city": "Goodyear", "country": "US", "id": "95071", "latitude": 33.4644845, "longitude": -112.356724, "name": "Applebee's", "phone_number": "623-536-8440", "state": "AZ", "zip_code": "85395"}, {"address": "4712 E. Ray Rd.", "city": "Higley", "country": "US", "id": "99039", "latitude": 33.322134, "longitude": -111.688792, "name": "Applebee's", "phone_number": "480-279-0824", "state": "AZ", "zip_code": "85236"}, {"address": "5210 W Baseline Rd.", "city": "Laveen", "country": "US", "id": "75078", "latitude": 33.377954, "longitude": -112.171371, "name": "Applebee's", "phone_number": "602-605-8010", "state": "AZ", "zip_code": "85339"}, {"address": "1143 N. Higley Road", "city": "Mesa", "country": "US", "id": "94005", "latitude": 33.436882, "longitude": -111.718372, "name": "Applebee's", "phone_number": "480-981-4667", "state": "AZ", "zip_code": "85205"}, {"address": "2032 East Baseline Road", "city": "Mesa", "country": "US", "id": "87071", "latitude": 33.379518, "longitude": -111.787849, "name": "Applebee's", "phone_number": "480-545-4299", "state": "AZ", "zip_code": "85204"}, {"address": "2053 S. Alma School Road", "city": "Mesa", "country": "US", "id": "85030", "latitude": 33.377242, "longitude": -111.859174, "name": "Applebee's", "phone_number": "480-831-7557", "state": "AZ", "zip_code": "85210"}, {"address": "6259 E. Southern Avenue", "city": "Mesa", "country": "US", "id": "87037", "latitude": 33.393642, "longitude": -111.695721, "name": "Applebee's", "phone_number": "480-830-3099", "state": "AZ", "zip_code": "85206"}, {"address": "8001 West Bell Road", "city": "Peoria", "country": "US", "id": "88007", "latitude": 33.637769, "longitude": -112.230812, "name": "Applebee's", "phone_number": "623-878-1410", "state": "AZ", "zip_code": "85382"}, {"address": "2180 E. Baseline Road", "city": "Phoenix", "country": "US", "id": "98063", "latitude": 33.378373, "longitude": -112.033112, "name": "Applebee's", "phone_number": "602-323-5680", "state": "AZ", "zip_code": "85042"}, {"address": "2547 N 44th Street", "city": "Phoenix", "country": "US", "id": "90003", "latitude": 33.476393, "longitude": -111.986467, "name": "Applebee's", "phone_number": "602-952-0033", "state": "AZ", "zip_code": "85008"}, {"address": "2651 N 75th Ave", "city": "Phoenix", "country": "US", "id": "78022", "latitude": 33.478095, "longitude": -112.22017, "name": "Applebee's", "phone_number": "623-849-8895", "state": "AZ", "zip_code": "85035"}, {"address": "2720 W. Bell Road", "city": "Phoenix", "country": "US", "id": "86047", "latitude": 33.640845, "longitude": -112.11793, "name": "Applebee's", "phone_number": "602-789-9449", "state": "AZ", "zip_code": "85053"}, {"address": "2 East Camelback", "city": "Phoenix", "country": "US", "id": "90059", "latitude": 33.50958, "longitude": -112.073354, "name": "Applebee's", "phone_number": "602-266-3330", "state": "AZ", "zip_code": "85012"}, {"address": "1881 East Highway 69", "city": "Prescott", "country": "US", "id": "91015", "latitude": 34.550863, "longitude": -112.432725, "name": "Applebee's", "phone_number": "928-445-8787", "state": "AZ", "zip_code": "86301"}, {"address": "3899 El Mercado Loop", "city": "Sierra Vista", "country": "US", "id": "97096", "latitude": 31.532294, "longitude": -110.258085, "name": "Applebee's", "phone_number": "520-459-1664", "state": "AZ", "zip_code": "85635"}, {"address": "13756 W. Bell Road", "city": "Surprise", "country": "US", "id": "96028", "latitude": 33.642151, "longitude": -112.355688, "name": "Applebee's", "phone_number": "623-544-0368", "state": "AZ", "zip_code": "85374"}, {"address": "1655 W. Elliot", "city": "Tempe", "country": "US", "id": "88083", "latitude": 33.348729, "longitude": -111.965406, "name": "Applebee's", "phone_number": "480-893-2878", "state": "AZ", "zip_code": "85284"}, {"address": "909 E. Broadway", "city": "Tempe", "country": "US", "id": "92057", "latitude": 33.407106, "longitude": -111.925717, "name": "Applebee's", "phone_number": "480-736-1100", "state": "AZ", "zip_code": "85282"}, {"address": "2230 W. Ina Road", "city": "Tucson", "country": "US", "id": "92050", "latitude": 32.33778, "longitude": -111.01534, "name": "Applebee's", "phone_number": "520-297-2220", "state": "AZ", "zip_code": "85741"}, {"address": "565 E. Wetmore", "city": "Tucson", "country": "US", "id": "86074", "latitude": 32.286967, "longitude": -110.96356, "name": "Applebee's", "phone_number": "520-292-2600", "state": "AZ", "zip_code": "85705"}, {"address": "5870 East Broadway", "city": "Tucson", "country": "US", "id": "87066", "latitude": 32.22111, "longitude": -110.867236, "name": "Applebee's", "phone_number": "520-750-9780", "state": "AZ", "zip_code": "85711"}, {"address": "1100 East 16th Street", "city": "Yuma", "country": "US", "id": "96010", "latitude": 32.69909, "longitude": -114.609764, "name": "Applebee's", "phone_number": "928-782-7474", "state": "AZ", "zip_code": "85365"}, {"address": "11274 S. Fortuna Road", "city": "Yuma", "country": "US", "id": "99043", "latitude": 32.669504, "longitude": -114.447138, "name": "Applebee's", "phone_number": "928-305-9200", "state": "AZ", "zip_code": "85367"}, {"address": "3101 South Fourth Avenue", "city": "Yuma", "country": "US", "id": "91031", "latitude": 32.673107, "longitude": -114.624011, "name": "Applebee's", "phone_number": "928-344-3374", "state": "AZ", "zip_code": "85364"}, {"address": "2263 South Shore Center", "city": "Alameda", "country": "US", "id": "77079", "latitude": 37.757983, "longitude": -122.251862, "name": "Applebee's", "phone_number": "510-522-7071", "state": "CA", "zip_code": "94501"}, {"address": "21 E. Main Street", "city": "Alhambra", "country": "US", "id": "78015", "latitude": 34.095538, "longitude": -118.126568, "name": "Applebee's", "phone_number": "626-576-4621", "state": "CA", "zip_code": "91801"}, {"address": "2114 E Lincoln Ave", "city": "Anaheim", "country": "US", "id": "78052", "latitude": 33.8392333, "longitude": -117.8872722, "name": "Applebee's", "phone_number": "(714) 817-7806", "state": "CA", "zip_code": "92806"}, {"address": "2737 Hillcrest Avenue", "city": "Antioch", "country": "US", "id": "77089", "latitude": 37.9945838123713, "longitude": -121.784497249943, "name": "Applebee's", "phone_number": "925-753-5950", "state": "CA", "zip_code": "94531"}, {"address": "19201 Bear Valley Road", "city": "Apple Valley", "country": "US", "id": "79066", "latitude": 34.47052, "longitude": -117.243524, "name": "Applebee's", "phone_number": "760-240-9195", "state": "CA", "zip_code": "92308"}, {"address": "1000 Commerce Ave", "city": "Atwater", "country": "US", "id": "78040", "latitude": 37.341903, "longitude": -120.608307, "name": "Applebee's", "phone_number": "209-358-2191", "state": "CA", "zip_code": "95301"}, {"address": "2500 Bell Road", "city": "Auburn", "country": "US", "id": "76067", "latitude": 38.942819, "longitude": -121.091192, "name": "Applebee's", "phone_number": "530-823-8663", "state": "CA", "zip_code": "95603"}, {"address": "377 N. Citrus Ave", "city": "Azusa", "country": "US", "id": "76099", "latitude": 34.127871, "longitude": -117.890348, "name": "Applebee's", "phone_number": "626-334-5103", "state": "CA", "zip_code": "91702"}, {"address": "9000 Ming Avenue, Suite M", "city": "Bakersfield", "country": "US", "id": "77088", "latitude": 35.340095, "longitude": -119.101594, "name": "Applebee's", "phone_number": "661-664-0974", "state": "CA", "zip_code": "93311"}, {"address": "1585 E 6th Street", "city": "Beaumont", "country": "US", "id": "99097", "latitude": 33.92885, "longitude": -116.950568, "name": "Applebee's", "phone_number": "951-845-3638", "state": "CA", "zip_code": "92223"}, {"address": "5700 Florence Ave", "city": "Bell Gardens", "country": "US", "id": "78017", "latitude": 33.96751, "longitude": -118.164437, "name": "Applebee's", "phone_number": "323-326-2020", "state": "CA", "zip_code": "90201"}, {"address": "2505 Scaroni Rd.", "city": "Calexico", "country": "US", "id": "98000", "latitude": 32.697487, "longitude": -115.500165, "name": "Applebee's", "phone_number": "760-768-1649", "state": "CA", "zip_code": "92231"}, {"address": "291 W. Ventura Blvd", "city": "Camarillo", "country": "US", "id": "76048", "latitude": 34.218809, "longitude": -119.074623, "name": "Applebee's", "phone_number": "805-445-7160", "state": "CA", "zip_code": "93010"}, {"address": "3281 Coach Lane", "city": "Cameron Park", "country": "US", "id": "76071", "latitude": 38.658968, "longitude": -120.974678, "name": "Applebee's", "phone_number": "530-677-8677", "state": "CA", "zip_code": "95682"}, {"address": "32400 Date Palm Drive", "city": "Cathedral City", "country": "US", "id": "92088", "latitude": 33.812902, "longitude": -116.45772, "name": "Applebee's", "phone_number": "760-324-6911", "state": "CA", "zip_code": "92234"}, {"address": "9255 Winnetka Ave", "city": "Chatsworth", "country": "US", "id": "76050", "latitude": 34.238961, "longitude": -118.571549, "name": "Applebee's", "phone_number": "818-885-6519", "state": "CA", "zip_code": "91311"}, {"address": "2030 Business Lane", "city": "Chico", "country": "US", "id": "91039", "latitude": 39.724798, "longitude": -121.806442, "name": "Applebee's", "phone_number": "530-343-6888", "state": "CA", "zip_code": "95928"}, {"address": "3956 Grand Avenue", "city": "Chino", "country": "US", "id": "79055", "latitude": 33.998201, "longitude": -117.718305, "name": "Applebee's", "phone_number": "909-590-7844", "state": "CA", "zip_code": "91710"}, {"address": "610 Palomar St", "city": "Chula Vista", "country": "US", "id": "77062", "latitude": 32.602655, "longitude": -117.079051, "name": "Applebee's", "phone_number": "619-585-4753", "state": "CA", "zip_code": "91911"}, {"address": "6900 Auburn Blvd", "city": "Citrus Heights", "country": "US", "id": "78038", "latitude": 38.689892, "longitude": -121.297311, "name": "Applebee's", "phone_number": "916-721-3550", "state": "CA", "zip_code": "95621"}, {"address": "1590 Azusa Ave", "city": "City of Industry", "country": "US", "id": "78003", "latitude": 33.993003, "longitude": -117.930357, "name": "Applebee's", "phone_number": "626-965-6940", "state": "CA", "zip_code": "91748"}, {"address": "98 Shaw Avenue", "city": "Clovis", "country": "US", "id": "77078", "latitude": 36.808006, "longitude": -119.707967, "name": "Applebee's", "phone_number": "559-322-9890", "state": "CA", "zip_code": "93612"}, {"address": "521 N. McKinley", "city": "Corona", "country": "US", "id": "79054", "latitude": 33.8912, "longitude": -117.5213, "name": "Applebee's", "phone_number": "951-371-1995", "state": "CA", "zip_code": "92879"}, {"address": "1753 Research Park Drive", "city": "Davis", "country": "US", "id": "76069", "latitude": 38.5417477777778, "longitude": -121.731352962963, "name": "Applebee's", "phone_number": "530-747-0414", "state": "CA", "zip_code": "95618"}, {"address": "4808 Dublin Blvd.", "city": "Dublin", "country": "US", "id": "77092", "latitude": 37.702257, "longitude": -121.882427, "name": "Applebee's", "phone_number": "925-875-0600", "state": "CA", "zip_code": "94568"}, {"address": "107 Fletcher Parkway", "city": "El Cajon", "country": "US", "id": "79041", "latitude": 32.8073, "longitude": -116.963, "name": "Applebee's", "phone_number": "619-593-3066", "state": "CA", "zip_code": "92020"}, {"address": "2508 Jamacha", "city": "El Cajon", "country": "US", "id": "79045", "latitude": 32.7446, "longitude": -116.9312, "name": "Applebee's", "phone_number": "619-670-7203", "state": "CA", "zip_code": "92019"}, {"address": "2421 N. Cottonwood", "city": "El Centro", "country": "US", "id": "98043", "latitude": 32.815973, "longitude": -115.570353, "name": "Applebee's", "phone_number": "760-353-8311", "state": "CA", "zip_code": "92243"}, {"address": "9105 E Stockton Blvd", "city": "Elk Grove", "country": "US", "id": "76058", "latitude": 38.426869, "longitude": -121.395958, "name": "Applebee's", "phone_number": "916-685-0321", "state": "CA", "zip_code": "95624"}, {"address": "1216 Auto Park Way", "city": "Escondido", "country": "US", "id": "79044", "latitude": 33.1101, "longitude": -117.0983, "name": "Applebee's", "phone_number": "760-743-6612", "state": "CA", "zip_code": "92029"}, {"address": "2846 Broadway", "city": "Eureka", "country": "US", "id": "95027", "latitude": 40.782264, "longitude": -124.184611, "name": "Applebee's", "phone_number": "707-269-0533", "state": "CA", "zip_code": "95501"}, {"address": "1350 Travis Blvd #Z-5", "city": "Fairfield", "country": "US", "id": "76066", "latitude": 38.26061, "longitude": -122.055468, "name": "Applebee's", "phone_number": "707-399-0796", "state": "CA", "zip_code": "94533"}, {"address": "16867 Sierra Lakes Parkway", "city": "Fontana", "country": "US", "id": "79064", "latitude": 34.1392, "longitude": -117.4378, "name": "Applebee's", "phone_number": "909-854-1003", "state": "CA", "zip_code": "92336"}, {"address": "18279 Brookhurst Street", "city": "Fountain Valley", "country": "US", "id": "79049", "latitude": 33.6976, "longitude": -117.9546, "name": "Applebee's", "phone_number": "714-963-1835", "state": "CA", "zip_code": "92708"}, {"address": "39139 Farwell Drive", "city": "Fremont", "country": "US", "id": "77091", "latitude": 37.5326288235294, "longitude": -121.999223529412, "name": "Applebee's", "phone_number": "510-742-6400", "state": "CA", "zip_code": "94538"}, {"address": "43349 Boscell Road", "city": "Fremont", "country": "US", "id": "76013", "latitude": 37.50325, "longitude": -121.976492, "name": "Applebee's", "phone_number": "510-226-0202", "state": "CA", "zip_code": "94538"}, {"address": "3604 West Shaw", "city": "Fresno", "country": "US", "id": "77084", "latitude": 36.808624, "longitude": -119.859029, "name": "Applebee's", "phone_number": "559-271-9844", "state": "CA", "zip_code": "93711"}, {"address": "7007 N Cedar", "city": "Fresno", "country": "US", "id": "77082", "latitude": 36.837656, "longitude": -119.754666, "name": "Applebee's", "phone_number": "559-322-7144", "state": "CA", "zip_code": "93720"}, {"address": "8430 North Friant Road", "city": "Fresno", "country": "US", "id": "77077", "latitude": 36.856127, "longitude": -119.786325, "name": "Applebee's", "phone_number": "559-261-2331", "state": "CA", "zip_code": "93720"}, {"address": "8200 Arroyo Circle", "city": "Gilroy", "country": "US", "id": "89075", "latitude": 37.021279, "longitude": -121.561732, "name": "Applebee's", "phone_number": "408-848-5600", "state": "CA", "zip_code": "95020"}, {"address": "2170 Golden Centre Lane", "city": "Gold River", "country": "US", "id": "76059", "latitude": 38.624251, "longitude": -121.265104, "name": "Applebee's", "phone_number": "916-635-1234", "state": "CA", "zip_code": "95670"}, {"address": "1665 West Lacey Blvd", "city": "Hanford", "country": "US", "id": "77081", "latitude": 36.327726, "longitude": -119.668964, "name": "Applebee's", "phone_number": "559-583-8084", "state": "CA", "zip_code": "93230"}, {"address": "24041 Southland Drive", "city": "Hayward", "country": "US", "id": "77083", "latitude": 37.654309, "longitude": -122.105721, "name": "Applebee's", "phone_number": "510-782-6400", "state": "CA", "zip_code": "94545"}, {"address": "2515 W. Florida Ave.", "city": "Hemet", "country": "US", "id": "79060", "latitude": 33.7469, "longitude": -116.9983, "name": "Applebee's", "phone_number": "951-791-2506", "state": "CA", "zip_code": "92545"}, {"address": "4070 E Highland Avenue", "city": "Highland", "country": "US", "id": "79051", "latitude": 34.1361, "longitude": -117.1982, "name": "Applebee's", "phone_number": "909-425-9020", "state": "CA", "zip_code": "92346"}, {"address": "82894 Highway 111", "city": "Indio", "country": "US", "id": "78006", "latitude": 33.71496, "longitude": -116.2182, "name": "Applebee's", "phone_number": "760-342-4149", "state": "CA", "zip_code": "92201"}, {"address": "1238 West Imperial Highway", "city": "La Habra", "country": "US", "id": "79050", "latitude": 33.917042, "longitude": -117.961467, "name": "Applebee's", "phone_number": "562-690-0779", "state": "CA", "zip_code": "90631"}, {"address": "4935 Graywood Ave", "city": "Lakewood", "country": "US", "id": "77059", "latitude": 33.852464, "longitude": -118.137016, "name": "Applebee's", "phone_number": "562-531-0980", "state": "CA", "zip_code": "90712"}, {"address": "43545 10th St. West", "city": "Lancaster", "country": "US", "id": "78009", "latitude": 34.673622, "longitude": -118.14838, "name": "Applebee's", "phone_number": "661-942-6410", "state": "CA", "zip_code": "93534"}, {"address": "45305 Seeley Drive", "city": "La Quinta", "country": "US", "id": "76029", "latitude": 33.719735, "longitude": -116.295087, "name": "Applebee's", "phone_number": "760-345-9222", "state": "CA", "zip_code": "92253"}, {"address": "2442 W Kettleman Lane", "city": "Lodi", "country": "US", "id": "76061", "latitude": 38.115031, "longitude": -121.30565, "name": "Applebee's", "phone_number": "209-369-6657", "state": "CA", "zip_code": "95242"}, {"address": "621 W. Central Ave", "city": "Lompoc", "country": "US", "id": "77052", "latitude": 34.661191, "longitude": -120.466805, "name": "Applebee's", "phone_number": "805-735-2141", "state": "CA", "zip_code": "93436"}, {"address": "1272 E. Yosemite Ave.", "city": "Manteca", "country": "US", "id": "96062", "latitude": 37.797055, "longitude": -121.196757, "name": "Applebee's", "phone_number": "209-824-4499", "state": "CA", "zip_code": "95336"}, {"address": "27750 Newport Road", "city": "Menifee", "country": "US", "id": "77075", "latitude": 33.685237, "longitude": -117.177022, "name": "Applebee's", "phone_number": "951-301-5094", "state": "CA", "zip_code": "92584"}, {"address": "1734 W. Olive Ave.", "city": "Merced", "country": "US", "id": "98028", "latitude": 37.318704, "longitude": -120.497331, "name": "Applebee's", "phone_number": "209-724-9930", "state": "CA", "zip_code": "95348"}, {"address": "84 Ranch Drive", "city": "Milpitas", "country": "US", "id": "90040", "latitude": 37.426676, "longitude": -121.921127, "name": "Applebee's", "phone_number": "408-263-3939", "state": "CA", "zip_code": "95035"}, {"address": "12375 Limonite Avenue", "city": "Mira Loma", "country": "US", "id": "79063", "latitude": 33.975555, "longitude": -117.55255, "name": "Applebee's", "phone_number": "951-360-8537", "state": "CA", "zip_code": "91752"}, {"address": "3900 Sisk Road", "city": "Modesto", "country": "US", "id": "91020", "latitude": 37.691656, "longitude": -121.062378, "name": "Applebee's", "phone_number": "209-545-1046", "state": "CA", "zip_code": "95356"}, {"address": "9241 Monte Vista Avenue", "city": "Montclair", "country": "US", "id": "78013", "latitude": 34.086293, "longitude": -117.697938, "name": "Applebee's", "phone_number": "909-624-5555", "state": "CA", "zip_code": "91763"}, {"address": "1493 N. Montebello Blvd.", "city": "Montebello", "country": "US", "id": "78016", "latitude": 34.034437, "longitude": -118.092078, "name": "Applebee's", "phone_number": "323-278-0250", "state": "CA", "zip_code": "90640"}, {"address": "12600 Day Street", "city": "Moreno Valley", "country": "US", "id": "79065", "latitude": 33.9366, "longitude": -117.2784, "name": "Applebee's", "phone_number": "951-413-1418", "state": "CA", "zip_code": "92553"}, {"address": "24872 Madison Avenue", "city": "Murrieta", "country": "US", "id": "79062", "latitude": 33.5602, "longitude": -117.203, "name": "Applebee's", "phone_number": "951-894-1846", "state": "CA", "zip_code": "92562"}, {"address": "195 Soscol Ave.", "city": "Napa", "country": "US", "id": "97024", "latitude": 38.282154, "longitude": -122.274816, "name": "Applebee's", "phone_number": "707-224-0502", "state": "CA", "zip_code": "94559"}, {"address": "3030 Plaza Bonita Road", "city": "National City", "country": "US", "id": "79046", "latitude": 32.6569, "longitude": -117.0667, "name": "Applebee's", "phone_number": "619-475-1855", "state": "CA", "zip_code": "91950"}, {"address": "12129 Imperial Highway", "city": "Norwalk", "country": "US", "id": "78018", "latitude": 33.917371, "longitude": -118.073742, "name": "Applebee's", "phone_number": "562-863-0798", "state": "CA", "zip_code": "90650"}, {"address": "2146 Vista Way", "city": "Oceanside", "country": "US", "id": "79047", "latitude": 33.1815, "longitude": -117.344, "name": "Applebee's", "phone_number": "760-757-5848", "state": "CA", "zip_code": "92054"}, {"address": "1021 N. Milliken Ave.", "city": "Ontario", "country": "US", "id": "79058", "latitude": 34.0752, "longitude": -117.5583, "name": "Applebee's", "phone_number": "909-484-6003", "state": "CA", "zip_code": "91764"}, {"address": "2160 Feather River Blvd", "city": "Oroville", "country": "US", "id": "76018", "latitude": 39.501539, "longitude": -121.571429, "name": "Applebee's", "phone_number": "530-534-4500", "state": "CA", "zip_code": "95965"}, {"address": "39720 N 10th Street West", "city": "Palmdale", "country": "US", "id": "76045", "latitude": 34.603764, "longitude": -118.14731, "name": "Applebee's", "phone_number": "661-266-9100", "state": "CA", "zip_code": "93551"}, {"address": "74999 Frank Sinatra Dr.", "city": "Palm Desert", "country": "US", "id": "98091", "latitude": 33.772202, "longitude": -116.356408, "name": "Applebee's", "phone_number": "760-346-5722", "state": "CA", "zip_code": "92211"}, {"address": "5301 Old Redwood Hwy", "city": "Petaluma", "country": "US", "id": "91047", "latitude": 38.275968, "longitude": -122.669547, "name": "Applebee's", "phone_number": "707-792-0500", "state": "CA", "zip_code": "94954"}, {"address": "1369 Fitzgerald Drive", "city": "Pinole", "country": "US", "id": "77087", "latitude": 37.988144, "longitude": -122.312117, "name": "Applebee's", "phone_number": "510-243-0400", "state": "CA", "zip_code": "94564"}, {"address": "892 W Henderson Ave", "city": "Porterville", "country": "US", "id": "78008", "latitude": 36.08083, "longitude": -119.037262, "name": "Applebee's", "phone_number": "559-788-2031", "state": "CA", "zip_code": "93257"}, {"address": "10709 Foothill Blvd", "city": "Rancho Cucamonga", "country": "US", "id": "79056", "latitude": 34.1061, "longitude": -117.571, "name": "Applebee's", "phone_number": "909-980-3633", "state": "CA", "zip_code": "91730"}, {"address": "220 Antelope Blvd.", "city": "Red Bluff", "country": "US", "id": "99070", "latitude": 40.183318, "longitude": -122.220082, "name": "Applebee's", "phone_number": "530-527-6164", "state": "CA", "zip_code": "96080"}, {"address": "1801 Hilltop Drive", "city": "Redding", "country": "US", "id": "89012", "latitude": 40.580985, "longitude": -122.357445, "name": "Applebee's", "phone_number": "530-221-1888", "state": "CA", "zip_code": "96002"}, {"address": "2046 W Redlands Blvd", "city": "Redlands", "country": "US", "id": "79052", "latitude": 34.0633, "longitude": -117.22216, "name": "Applebee's", "phone_number": "909-335-7372", "state": "CA", "zip_code": "92373"}, {"address": "1135 Veterans Blvd", "city": "Redwood City", "country": "US", "id": "98047", "latitude": 37.489904, "longitude": -122.223463, "name": "Applebee's", "phone_number": "650-364-6849", "state": "CA", "zip_code": "94063"}, {"address": "2449 Claribel Road", "city": "Riverbank", "country": "US", "id": "75044", "latitude": 37.71136, "longitude": -120.952781, "name": "Applebee's", "phone_number": "209-863-9780", "state": "CA", "zip_code": "95367"}, {"address": "3820 Mulberry", "city": "Riverside", "country": "US", "id": "79053", "latitude": 33.9793, "longitude": -117.3698, "name": "Applebee's", "phone_number": "951-369-7447", "state": "CA", "zip_code": "92507"}, {"address": "6811 Lonetree Blvd.", "city": "Rocklin", "country": "US", "id": "78037", "latitude": 38.796736, "longitude": -121.291281, "name": "Applebee's", "phone_number": "916-771-2583", "state": "CA", "zip_code": "95765"}, {"address": "501 Rohnert Park Exressway", "city": "Rohnert Park", "country": "US", "id": "99023", "latitude": 38.348473, "longitude": -122.721766, "name": "Applebee's", "phone_number": "707-206-0660", "state": "CA", "zip_code": "94928"}, {"address": "2024 Arden Way", "city": "Sacramento", "country": "US", "id": "76065", "latitude": 38.59578, "longitude": -121.418794, "name": "Applebee's", "phone_number": "916-564-5296", "state": "CA", "zip_code": "95825"}, {"address": "3601 Truxel Rd.", "city": "Sacramento", "country": "US", "id": "76064", "latitude": 38.637028392121, "longitude": -121.503413769023, "name": "Applebee's", "phone_number": "916-928-8488", "state": "CA", "zip_code": "95834"}, {"address": "1301 N. Davis Road", "city": "Salinas", "country": "US", "id": "84067", "latitude": 36.702373, "longitude": -121.667271, "name": "Applebee's", "phone_number": "831-757-6682", "state": "CA", "zip_code": "93907"}, {"address": "7677 Balboa Avenue", "city": "San Diego", "country": "US", "id": "79043", "latitude": 32.8213, "longitude": -117.1588, "name": "Applebee's", "phone_number": "858-569-4590", "state": "CA", "zip_code": "92111"}, {"address": "9480 East Mira Mesa Blvd.", "city": "San Diego", "country": "US", "id": "79042", "latitude": 32.9181, "longitude": -117.1209, "name": "Applebee's", "phone_number": "858-578-8280", "state": "CA", "zip_code": "92126"}, {"address": "674 West Arrow Highway", "city": "San Dimas", "country": "US", "id": "78011", "latitude": 34.104476, "longitude": -117.818228, "name": "Applebee's", "phone_number": "909-394-7600", "state": "CA", "zip_code": "91773"}, {"address": "2770 Taylor St", "city": "San Francisco", "country": "US", "id": "77043", "latitude": 37.808211, "longitude": -122.415805, "name": "Applebee's", "phone_number": "415-749-9025", "state": "CA", "zip_code": "94133"}, {"address": "Diagonal a la Rotundra La Bandera", "city": "San Jose", "country": "CR", "id": "100180", "latitude": 9.9393257, "longitude": -84.0549888, "name": "Applebee's", "phone_number": "506-25423342", "state": "", "zip_code": ""}, {"address": "5690 Cottle Road", "city": "San Jose", "country": "US", "id": "78045", "latitude": 37.2508354, "longitude": -121.802813, "name": "Applebee's", "phone_number": "408-809-4980", "state": "CA", "zip_code": "95123"}, {"address": "51 Curtner Ave", "city": "San Jose", "country": "US", "id": "76030", "latitude": 37.302746, "longitude": -121.863106, "name": "Applebee's", "phone_number": "408-295-7150", "state": "CA", "zip_code": "95125"}, {"address": "555 Saratoga Ave.", "city": "San Jose", "country": "US", "id": "95095", "latitude": 37.316722, "longitude": -121.975951, "name": "Applebee's", "phone_number": "408-446-8370", "state": "CA", "zip_code": "95129"}, {"address": "573 Grand Avenue", "city": "San Marcos", "country": "US", "id": "79059", "latitude": 33.1354754545454, "longitude": -117.178387272727, "name": "Applebee's", "phone_number": "760-744-4328", "state": "CA", "zip_code": "92078"}, {"address": "5800 Northgate Mall, Suite #8", "city": "San Rafael", "country": "US", "id": "96002", "latitude": 38.004933, "longitude": -122.544233, "name": "Applebee's", "phone_number": "415-472-1670", "state": "CA", "zip_code": "94903"}, {"address": "Centro Comercial Terrazas", "city": "Santa Ana", "country": "CR", "id": "100240", "latitude": 9.93779, "longitude": -84.18876, "name": "Applebee's", "phone_number": "506-4032-4060", "state": "", "zip_code": ""}, {"address": "2800 N. Main Street", "city": "Santa Ana", "country": "US", "id": "77032", "latitude": 33.773765, "longitude": -117.867527, "name": "Applebee's", "phone_number": "657-212-6701", "state": "CA", "zip_code": "92705"}, {"address": "1415 S. Bradley", "city": "Santa Maria", "country": "US", "id": "84045", "latitude": 34.935304, "longitude": -120.418818, "name": "Applebee's", "phone_number": "805-922-6633", "state": "CA", "zip_code": "93454"}, {"address": "2250 Santa Rosa Avenue", "city": "Santa Rosa", "country": "US", "id": "90092", "latitude": 38.417171, "longitude": -122.713132, "name": "Applebee's", "phone_number": "707-576-0552", "state": "CA", "zip_code": "95407"}, {"address": "899 East Spring St", "city": "Signal Hill", "country": "US", "id": "77047", "latitude": 33.811779, "longitude": -118.181693, "name": "Applebee's", "phone_number": "562-426-6723", "state": "CA", "zip_code": "90755"}, {"address": "851 Sanguinetti Road", "city": "Sonora", "country": "US", "id": "96035", "latitude": 37.97368, "longitude": -120.367441, "name": "Applebee's", "phone_number": "209-533-9670", "state": "CA", "zip_code": "95370"}, {"address": "3987 Lake Tahoe Blvd.", "city": "South Lake Tahoe", "country": "US", "id": "82063", "latitude": 38.954745, "longitude": -119.945497, "name": "Applebee's", "phone_number": "530-544-2113", "state": "CA", "zip_code": "96150"}, {"address": "2659 W. March Lane", "city": "Stockton", "country": "US", "id": "76063", "latitude": 37.985103, "longitude": -121.342021, "name": "Applebee's", "phone_number": "209-952-9330", "state": "CA", "zip_code": "95207"}, {"address": "32175 Hwy. 79", "city": "Temecula", "country": "US", "id": "79048", "latitude": 33.4808, "longitude": -117.0974, "name": "Applebee's", "phone_number": "951-506-7852", "state": "CA", "zip_code": "92592"}, {"address": "3060 N. Naglee Road", "city": "Tracy", "country": "US", "id": "95014", "latitude": 37.757605, "longitude": -121.461793, "name": "Applebee's", "phone_number": "209-834-0360", "state": "CA", "zip_code": "95304"}, {"address": "2501 Fulkerth Road", "city": "Turlock", "country": "US", "id": "94065", "latitude": 37.507519, "longitude": -120.876429, "name": "Applebee's", "phone_number": "209-656-7441", "state": "CA", "zip_code": "95380"}, {"address": "1201 Airport Park Blvd.", "city": "Ukiah", "country": "US", "id": "97011", "latitude": 39.132481, "longitude": -123.198481, "name": "Applebee's", "phone_number": "707-462-7010", "state": "CA", "zip_code": "95482"}, {"address": "160 Nut Tree Parkway", "city": "Vacaville", "country": "US", "id": "76060", "latitude": 38.366755, "longitude": -121.960379, "name": "Applebee's", "phone_number": "707-452-1167", "state": "CA", "zip_code": "95687"}, {"address": "1041 Admiral Callaghan Lane", "city": "Vallejo", "country": "US", "id": "76057", "latitude": 38.135611, "longitude": -122.218976, "name": "Applebee's", "phone_number": "707-558-0824", "state": "CA", "zip_code": "94591"}, {"address": "12044 Amargosa Road", "city": "Victorville", "country": "US", "id": "79057", "latitude": 34.46923, "longitude": -117.34899, "name": "Applebee's", "phone_number": "760-947-6294", "state": "CA", "zip_code": "92392"}, {"address": "3400 S. Mooney Blvd.", "city": "Visalia", "country": "US", "id": "77094", "latitude": 36.300025, "longitude": -119.313148, "name": "Applebee's", "phone_number": "559-734-2332", "state": "CA", "zip_code": "93277"}, {"address": "5325 Avenida De Los Robles", "city": "Visalia", "country": "US", "id": "77086", "latitude": 36.328097, "longitude": -119.350068, "name": "Applebee's", "phone_number": "559-636-1605", "state": "CA", "zip_code": "93291"}, {"address": "21625 E. Valley Blvd.", "city": "Walnut", "country": "US", "id": "78014", "latitude": 34.027851, "longitude": -117.835586, "name": "Applebee's", "phone_number": "909-594-1140", "state": "CA", "zip_code": "91789"}, {"address": "2819 Ygnacio Valley Road", "city": "Walnut Creek", "country": "US", "id": "77085", "latitude": 37.926044, "longitude": -122.017116, "name": "Applebee's", "phone_number": "925-930-0130", "state": "CA", "zip_code": "94598"}, {"address": "1105 S. Green Valley Road", "city": "Watsonville", "country": "US", "id": "85010", "latitude": 36.91609, "longitude": -121.78512, "name": "Applebee's", "phone_number": "831-728-7272", "state": "CA", "zip_code": "95076"}, {"address": "8931 Brooks Road South", "city": "Windsor", "country": "US", "id": "76027", "latitude": 38.548399, "longitude": -122.807388, "name": "Applebee's", "phone_number": "707-836-0642", "state": "CA", "zip_code": "95492"}, {"address": "1790 E. Main Street", "city": "Woodland", "country": "US", "id": "76070", "latitude": 38.67679, "longitude": -121.739212, "name": "Applebee's", "phone_number": "530-668-8282", "state": "CA", "zip_code": "95776"}, {"address": "1000 Tharp Road", "city": "Yuba City", "country": "US", "id": "76068", "latitude": 39.142067, "longitude": -121.648922, "name": "Applebee's", "phone_number": "530-822-9566", "state": "CA", "zip_code": "95993"}, {"address": "57796 29 Palms Hwy", "city": "Yucca Valley", "country": "US", "id": "99055", "latitude": 34.126996, "longitude": -116.403979, "name": "Applebee's", "phone_number": "760-365-2900", "state": "CA", "zip_code": "92284"}, {"address": "5265 Wadsworth Bypass", "city": "Arvada", "country": "US", "id": "84056", "latitude": 39.793623, "longitude": -105.081027, "name": "Applebee's", "phone_number": "303-421-1032", "state": "CO", "zip_code": "80002"}, {"address": "10501 E. Garden Dr.", "city": "Aurora", "country": "US", "id": "78002", "latitude": 39.693753, "longitude": -104.865692, "name": "Applebee's", "phone_number": "720-748-2617", "state": "CO", "zip_code": "80012"}, {"address": "14091 E. Iliff Avenue", "city": "Aurora", "country": "US", "id": "84032", "latitude": 39.675326, "longitude": -104.824513, "name": "Applebee's", "phone_number": "303-745-9897", "state": "CO", "zip_code": "80014"}, {"address": "16485 E. 40th Circle", "city": "Aurora", "country": "US", "id": "84082", "latitude": 39.772449, "longitude": -104.796468, "name": "Applebee's", "phone_number": "303-371-4114", "state": "CO", "zip_code": "80011"}, {"address": "922 S. 4th Ave.", "city": "Brighton", "country": "US", "id": "84096", "latitude": 39.971697, "longitude": -104.81782, "name": "Applebee's", "phone_number": "720-685-1095", "state": "CO", "zip_code": "80601"}, {"address": "6405 W. 120th Avenue", "city": "Broomfield", "country": "US", "id": "84042", "latitude": 39.914527, "longitude": -105.067382, "name": "Applebee's", "phone_number": "303-466-3848", "state": "CO", "zip_code": "80020"}, {"address": "390 Allen Street", "city": "Castle Rock", "country": "US", "id": "84091", "latitude": 39.4122402363675, "longitude": -104.85889776695, "name": "Applebee's", "phone_number": "303-814-0230", "state": "CO", "zip_code": "80108"}, {"address": "8292 S. University Blvd.", "city": "Centennial", "country": "US", "id": "84033", "latitude": 39.566444, "longitude": -104.960099, "name": "Applebee's", "phone_number": "303-770-3383", "state": "CO", "zip_code": "80122"}, {"address": "3708 East Galley", "city": "Colorado Springs", "country": "US", "id": "84053", "latitude": 38.84748, "longitude": -104.759194, "name": "Applebee's", "phone_number": "719-574-5111", "state": "CO", "zip_code": "80909"}, {"address": "495 Garden of the Gods Road", "city": "Colorado Springs", "country": "US", "id": "84077", "latitude": 38.896235, "longitude": -104.831504, "name": "Applebee's", "phone_number": "719-265-6605", "state": "CO", "zip_code": "80907"}, {"address": "7625 Goddard Street", "city": "Colorado Springs", "country": "US", "id": "84047", "latitude": 38.941272, "longitude": -104.799834, "name": "Applebee's", "phone_number": "719-535-2799", "state": "CO", "zip_code": "80920"}, {"address": "800 S Camino Del Rio", "city": "Durango", "country": "US", "id": "84094", "latitude": 37.273316, "longitude": -107.884031, "name": "Applebee's", "phone_number": "970-259-5850", "state": "CO", "zip_code": "81301"}, {"address": "6428 S. Hwy. 85/87", "city": "Fountain", "country": "US", "id": "85015", "latitude": 38.738703, "longitude": -104.733285, "name": "Applebee's", "phone_number": "719-391-9000", "state": "CO", "zip_code": "80817"}, {"address": "4306 South College Avenue", "city": "Ft. Collins", "country": "US", "id": "84031", "latitude": 40.527481, "longitude": -105.076558, "name": "Applebee's", "phone_number": "970-225-1041", "state": "CO", "zip_code": "80525"}, {"address": "410 South Colorado Blvd.", "city": "Glendale", "country": "US", "id": "84034", "latitude": 39.708985, "longitude": -104.940166, "name": "Applebee's", "phone_number": "303-333-0808", "state": "CO", "zip_code": "80246"}, {"address": "711 Horizon Drive", "city": "Grand Junction", "country": "US", "id": "84059", "latitude": 39.10775, "longitude": -108.543895, "name": "Applebee's", "phone_number": "970-256-0022", "state": "CO", "zip_code": "81506"}, {"address": "4100 West 10th Street", "city": "Greeley", "country": "US", "id": "84063", "latitude": 40.421565, "longitude": -104.746297, "name": "Applebee's", "phone_number": "970-346-9493", "state": "CO", "zip_code": "80634"}, {"address": "10625 West Colfax", "city": "Lakewood", "country": "US", "id": "84048", "latitude": 39.740779, "longitude": -105.118409, "name": "Applebee's", "phone_number": "303-462-1782", "state": "CO", "zip_code": "80226"}, {"address": "5250 S. Wadsworth Blvd.", "city": "Lakewood", "country": "US", "id": "84030", "latitude": 39.621439, "longitude": -105.090539, "name": "Applebee's", "phone_number": "303-933-2230", "state": "CO", "zip_code": "80123"}, {"address": "213 East 29th Street", "city": "Loveland", "country": "US", "id": "84074", "latitude": 40.422019, "longitude": -105.075816, "name": "Applebee's", "phone_number": "970-593-0655", "state": "CO", "zip_code": "80538"}, {"address": "1501 Oxbow Drive", "city": "Montrose", "country": "US", "id": "84017", "latitude": 38.446091, "longitude": -107.865714, "name": "Applebee's", "phone_number": "970-249-1214", "state": "CO", "zip_code": "81401"}, {"address": "100 West 104th Avenue", "city": "Northglenn", "country": "US", "id": "84040", "latitude": 39.884796, "longitude": -104.988936, "name": "Applebee's", "phone_number": "303-252-7422", "state": "CO", "zip_code": "80234"}, {"address": "3428 N. Elizabeth", "city": "Pueblo", "country": "US", "id": "84051", "latitude": 38.306383, "longitude": -104.614838, "name": "Applebee's", "phone_number": "719-542-2598", "state": "CO", "zip_code": "81008"}, {"address": "4001 W. Northern Ave.", "city": "Pueblo", "country": "US", "id": "85003", "latitude": 38.235696, "longitude": -104.662917, "name": "Applebee's", "phone_number": "719-564-6090", "state": "CO", "zip_code": "81005"}, {"address": "297 East 120th Avenue", "city": "Thornton", "country": "US", "id": "84050", "latitude": 39.914356, "longitude": -104.986045, "name": "Applebee's", "phone_number": "303-451-1414", "state": "CO", "zip_code": "80233"}, {"address": "9010 N. Wadsworth Parkway", "city": "Westminster", "country": "US", "id": "84041", "latitude": 39.85975, "longitude": -105.081173, "name": "Applebee's", "phone_number": "303-431-9022", "state": "CO", "zip_code": "80021"}, {"address": "57 Federal Road", "city": "Danbury", "country": "US", "id": "93006", "latitude": 41.419805, "longitude": -73.418921, "name": "Applebee's", "phone_number": "203-790-7090", "state": "CT", "zip_code": "06810"}, {"address": "350 Long Hill Road", "city": "Groton", "country": "US", "id": "95003", "latitude": 41.357476, "longitude": -72.061474, "name": "Applebee's", "phone_number": "860-446-0452", "state": "CT", "zip_code": "06340"}, {"address": "526 Boston Post Road", "city": "Orange", "country": "US", "id": "96022", "latitude": 41.253634, "longitude": -73.016924, "name": "Applebee's", "phone_number": "203-795-5762", "state": "CT", "zip_code": "06477"}, {"address": "270 New Britain Ave.", "city": "Plainville", "country": "US", "id": "94072", "latitude": 41.675362, "longitude": -72.840543, "name": "Applebee's", "phone_number": "860-747-2358", "state": "CT", "zip_code": "06062"}, {"address": "1690 E. Main Street", "city": "Torrington", "country": "US", "id": "95092", "latitude": 41.820393, "longitude": -73.083441, "name": "Applebee's", "phone_number": "860-489-8690", "state": "CT", "zip_code": "06790"}, {"address": "93 Storrs Road", "city": "Willimantic", "country": "US", "id": "96054", "latitude": 41.734381, "longitude": -72.200559, "name": "Applebee's", "phone_number": "860-423-6069", "state": "CT", "zip_code": "06226"}, {"address": "4110 S. Dupont Hwy.", "city": "Camden", "country": "US", "id": "98044", "latitude": 39.101644, "longitude": -75.543592, "name": "Applebee's", "phone_number": "302-697-3033", "state": "DE", "zip_code": "19934"}, {"address": "909 N. DuPont Highway", "city": "Dover", "country": "US", "id": "92054", "latitude": 39.183796, "longitude": -75.532006, "name": "Applebee's", "phone_number": "302-741-2292", "state": "DE", "zip_code": "19901"}, {"address": "320 Dove Run Centre Blvd.", "city": "Middletown", "country": "US", "id": "98088", "latitude": 39.452768, "longitude": -75.687905, "name": "Applebee's", "phone_number": "302-449-0234", "state": "DE", "zip_code": "19709"}, {"address": "698 B North Dupont Highway", "city": "Milford", "country": "US", "id": "80058", "latitude": 38.917592, "longitude": -75.440451, "name": "Applebee's", "phone_number": "302-424-0954", "state": "DE", "zip_code": "19963"}, {"address": "2480 Pulaski Hwy.", "city": "Newark", "country": "US", "id": "97071", "latitude": 39.603914, "longitude": -75.748296, "name": "Applebee's", "phone_number": "302-836-8700", "state": "DE", "zip_code": "19702"}, {"address": "630 Suburban Drive", "city": "Newark", "country": "US", "id": "96025", "latitude": 39.666919, "longitude": -75.775406, "name": "Applebee's", "phone_number": "302-738-7230", "state": "DE", "zip_code": "19711"}, {"address": "900 Churchman&#39;s Road", "city": "Newark", "country": "US", "id": "94047", "latitude": 39.689292, "longitude": -75.655815, "name": "Applebee's", "phone_number": "302-454-9277", "state": "DE", "zip_code": "19713"}, {"address": "105 Wilton Blvd.", "city": "New Castle", "country": "US", "id": "96085", "latitude": 39.651535, "longitude": -75.622471, "name": "Applebee's", "phone_number": "302-322-8202", "state": "DE", "zip_code": "19720"}, {"address": "36501 Seaside Outlet Blvd", "city": "Rehoboth Beach", "country": "US", "id": "80057", "latitude": 38.719225, "longitude": -75.114693, "name": "Applebee's", "phone_number": "302-226-5307", "state": "DE", "zip_code": "19971"}, {"address": "22873 Sussex Highway", "city": "Seaford", "country": "US", "id": "80056", "latitude": 38.662286, "longitude": -75.593003, "name": "Applebee's", "phone_number": "302-628-0756", "state": "DE", "zip_code": "19973"}, {"address": "1600 Rocky Run Pkwy.", "city": "Wilmington", "country": "US", "id": "98072", "latitude": 39.82513, "longitude": -75.546234, "name": "Applebee's", "phone_number": "302-479-5207", "state": "DE", "zip_code": "19803"}, {"address": "4301 Kirkwood Highway", "city": "Wilmington", "country": "US", "id": "76020", "latitude": 39.728495, "longitude": -75.650061, "name": "Applebee's", "phone_number": "302-995-1328", "state": "DE", "zip_code": "19808"}, {"address": "1570 Boynton Beach Blvd.", "city": "Boynton Beach", "country": "US", "id": "96081", "latitude": 26.52699, "longitude": -80.095027, "name": "Applebee's", "phone_number": "561-752-4339", "state": "FL", "zip_code": "33436"}, {"address": "4301 Cortez Road", "city": "Bradenton", "country": "US", "id": "88065", "latitude": 27.461828, "longitude": -82.604669, "name": "Applebee's", "phone_number": "941-792-1234", "state": "FL", "zip_code": "34210"}, {"address": "4638 SR 64 East", "city": "Bradenton", "country": "US", "id": "97085", "latitude": 27.49776, "longitude": -82.504863, "name": "Applebee's", "phone_number": "941-748-6800", "state": "FL", "zip_code": "34208"}, {"address": "7175 State Road 70", "city": "Bradenton", "country": "US", "id": "95063", "latitude": 27.445243, "longitude": -82.470002, "name": "Applebee's", "phone_number": "941-755-2828", "state": "FL", "zip_code": "34203"}, {"address": "829 Providence Road", "city": "Brandon", "country": "US", "id": "92052", "latitude": 27.924313, "longitude": -82.316116, "name": "Applebee's", "phone_number": "813-643-0000", "state": "FL", "zip_code": "33511"}, {"address": "20090 Cortez Blvd.", "city": "Brooksville", "country": "US", "id": "96075", "latitude": 28.53919, "longitude": -82.401472, "name": "Applebee's", "phone_number": "352-796-4454", "state": "FL", "zip_code": "34601"}, {"address": "600 N. Tyndall Parkway", "city": "Callaway", "country": "US", "id": "94030", "latitude": 30.158772, "longitude": -85.590351, "name": "Applebee's", "phone_number": "850-522-0903", "state": "FL", "zip_code": "32404"}, {"address": "2228 Del Prado Blvd South", "city": "Cape Coral", "country": "US", "id": "91025", "latitude": 26.609707, "longitude": -81.941344, "name": "Applebee's", "phone_number": "239-458-5155", "state": "FL", "zip_code": "33990"}, {"address": "15090 N. Dale Mabry Highway", "city": "Carrollwood", "country": "US", "id": "94002", "latitude": 28.087483, "longitude": -82.504602, "name": "Applebee's", "phone_number": "813-269-7887", "state": "FL", "zip_code": "33618"}, {"address": "3315 US Highway 17-92", "city": "Casselberry", "country": "US", "id": "77048", "latitude": 28.679479, "longitude": -81.335002, "name": "Applebee's", "phone_number": "407-960-7928", "state": "FL", "zip_code": "32707"}, {"address": "6290 W. Irlo Bronson Memorial Hwy", "city": "Celebration", "country": "US", "id": "78050", "latitude": 28.332517, "longitude": -81.534728, "name": "Applebee's", "phone_number": "(407) 507-3142", "state": "FL", "zip_code": "34747"}, {"address": "1465 McMullen Booth Road", "city": "Clearwater", "country": "US", "id": "93003", "latitude": 27.981185, "longitude": -82.708387, "name": "Applebee's", "phone_number": "727-723-0303", "state": "FL", "zip_code": "33759"}, {"address": "30180 US Hwy. 19 North", "city": "Clearwater", "country": "US", "id": "86025", "latitude": 28.046484, "longitude": -82.739009, "name": "Applebee's", "phone_number": "727-786-8404", "state": "FL", "zip_code": "33761"}, {"address": "5110 East Bay Drive", "city": "Clearwater", "country": "US", "id": "86014", "latitude": 27.916776, "longitude": -82.733607, "name": "Applebee's", "phone_number": "727-539-6388", "state": "FL", "zip_code": "33764"}, {"address": "2050 E. Highway 50", "city": "Clermont", "country": "US", "id": "77036", "latitude": 28.547647, "longitude": -81.716436, "name": "Applebee's", "phone_number": "(352) 708-5717", "state": "FL", "zip_code": "34711"}, {"address": "2729 University Drive", "city": "Coral Springs", "country": "US", "id": "90048", "latitude": 26.264301, "longitude": -80.249385, "name": "Applebee's", "phone_number": "954-796-0330", "state": "FL", "zip_code": "33065"}, {"address": "215 Rasberry Road", "city": "Crestview", "country": "US", "id": "95079", "latitude": 30.727845, "longitude": -86.568795, "name": "Applebee's", "phone_number": "850-689-0050", "state": "FL", "zip_code": "32536"}, {"address": "200 N. Suncoast Blvd.", "city": "Crystal River", "country": "US", "id": "96023", "latitude": 28.865506, "longitude": -82.580311, "name": "Applebee's", "phone_number": "352-563-2800", "state": "FL", "zip_code": "34429"}, {"address": "200 Ambersweet Way", "city": "Davenport", "country": "US", "id": "75074", "latitude": 28.312999, "longitude": -81.668592, "name": "Applebee's", "phone_number": "863-424-7900", "state": "FL", "zip_code": "33897"}, {"address": "1700 W. Int&#39;l Speedway Blvd", "city": "Daytona Beach", "country": "US", "id": "76077", "latitude": 29.196078, "longitude": -81.064143, "name": "Applebee's", "phone_number": "386-253-3656", "state": "FL", "zip_code": "32114"}, {"address": "15058 Jog Road", "city": "Delray Beach", "country": "US", "id": "96017", "latitude": 26.45168, "longitude": -80.14691, "name": "Applebee's", "phone_number": "561-865-8757", "state": "FL", "zip_code": "33446"}, {"address": "5908 18th St. East", "city": "Ellenton", "country": "US", "id": "97051", "latitude": 27.530185, "longitude": -82.503933, "name": "Applebee's", "phone_number": "941-722-7100", "state": "FL", "zip_code": "34222"}, {"address": "10391 Corkscrew Commons Drive", "city": "Estero", "country": "US", "id": "99046", "latitude": 26.431951, "longitude": -81.782027, "name": "Applebee's", "phone_number": "239-992-1310", "state": "FL", "zip_code": "33928"}, {"address": "15351 US Highway 441", "city": "Eustis", "country": "US", "id": "98036", "latitude": 28.822578, "longitude": -81.703277, "name": "Applebee's", "phone_number": "352-357-2180", "state": "FL", "zip_code": "32726"}, {"address": "33009 S. Dixie Hwy.", "city": "Florida City", "country": "US", "id": "98067", "latitude": 25.45979, "longitude": -80.474671, "name": "Applebee's", "phone_number": "305-246-1004", "state": "FL", "zip_code": "33034"}, {"address": "13550 South Tamiami Trail", "city": "Ft. Myers", "country": "US", "id": "85036", "latitude": 26.545465, "longitude": -81.872079, "name": "Applebee's", "phone_number": "239-489-1811", "state": "FL", "zip_code": "33912"}, {"address": "8043 Dani Drive", "city": "Ft. Myers", "country": "US", "id": "99036", "latitude": 26.60912, "longitude": -81.81007, "name": "Applebee's", "phone_number": "239-939-5569", "state": "FL", "zip_code": "33966"}, {"address": "4890 Okeechobee Road", "city": "Ft. Pierce", "country": "US", "id": "88046", "latitude": 27.42166, "longitude": -80.374685, "name": "Applebee's", "phone_number": "772-460-1444", "state": "FL", "zip_code": "34947"}, {"address": "1005 N W 13th Street", "city": "Gainesville", "country": "US", "id": "89000", "latitude": 29.661436, "longitude": -82.338929, "name": "Applebee's", "phone_number": "352-335-0150", "state": "FL", "zip_code": "32601"}, {"address": "7441 W Newberry Rd.", "city": "Gainesville", "country": "US", "id": "78020", "latitude": 29.659136, "longitude": -82.421991, "name": "Applebee's", "phone_number": "352-332-8877", "state": "FL", "zip_code": "32605"}, {"address": "6706 Forrest Hill Blvd.", "city": "Green Acres", "country": "US", "id": "88012", "latitude": 26.650696, "longitude": -80.146458, "name": "Applebee's", "phone_number": "561-641-6332", "state": "FL", "zip_code": "33413"}, {"address": "3690 W. 16th Ave", "city": "Hialeah", "country": "US", "id": "76025", "latitude": 25.855037, "longitude": -80.314786, "name": "Applebee's", "phone_number": "305-823-0573", "state": "FL", "zip_code": "33012"}, {"address": "1901 W. Main Street", "city": "Inverness", "country": "US", "id": "95018", "latitude": 28.835739, "longitude": -82.353457, "name": "Applebee's", "phone_number": "352-560-0300", "state": "FL", "zip_code": "34452"}, {"address": "14560 St. Augustine Road", "city": "Jacksonville", "country": "US", "id": "75034", "latitude": 30.140404, "longitude": -81.53244, "name": "Applebee's", "phone_number": "904-262-7605", "state": "FL", "zip_code": "32258"}, {"address": "4507 Town Center Parkway", "city": "Jacksonville", "country": "US", "id": "75069", "latitude": 30.262719, "longitude": -81.52825, "name": "Applebee's", "phone_number": "904-645-3590", "state": "FL", "zip_code": "32246"}, {"address": "5055 J. Turner Butler Blvd", "city": "Jacksonville", "country": "US", "id": "93057", "latitude": 30.245883, "longitude": -81.59841, "name": "Applebee's", "phone_number": "904-296-6895", "state": "FL", "zip_code": "32216"}, {"address": "843 Lane Ave. South", "city": "Jacksonville", "country": "US", "id": "96046", "latitude": 30.310569, "longitude": -81.751367, "name": "Applebee's", "phone_number": "904-378-5445", "state": "FL", "zip_code": "32205"}, {"address": "14990 E Orange Lake Blvd", "city": "Kissimmee", "country": "US", "id": "76086", "latitude": 28.347638, "longitude": -81.613284, "name": "Applebee's", "phone_number": "407-465-5506", "state": "FL", "zip_code": "34747"}, {"address": "2060 E. Osceola Pkwy.", "city": "Kissimmee", "country": "US", "id": "99029", "latitude": 28.34474, "longitude": -81.3614033882996, "name": "Applebee's", "phone_number": "407-348-2810", "state": "FL", "zip_code": "34743"}, {"address": "4759 Irlo Bronson Memorial Pkwy.", "city": "Kissimmee", "country": "US", "id": "75022", "latitude": 28.326622, "longitude": -81.470145, "name": "Applebee's", "phone_number": "407-397-2288", "state": "FL", "zip_code": "34746"}, {"address": "230 Arteva Drive", "city": "Lakeland", "country": "US", "id": "95031", "latitude": 28.099365, "longitude": -81.952057, "name": "Applebee's", "phone_number": "863-853-8400", "state": "FL", "zip_code": "33809"}, {"address": "4835 S. Florida Avenue", "city": "Lakeland", "country": "US", "id": "92082", "latitude": 27.976591, "longitude": -81.960045, "name": "Applebee's", "phone_number": "863-701-7400", "state": "FL", "zip_code": "33813"}, {"address": "7055 County Road 46A", "city": "Lake Mary", "country": "US", "id": "97013", "latitude": 28.785928, "longitude": -81.35728, "name": "Applebee's", "phone_number": "407-444-9930", "state": "FL", "zip_code": "32746"}, {"address": "10911 Starkey Road", "city": "Largo", "country": "US", "id": "90033", "latitude": 27.871699, "longitude": -82.761946, "name": "Applebee's", "phone_number": "727-393-3933", "state": "FL", "zip_code": "33777"}, {"address": "298 Southhall Lane", "city": "Maitland", "country": "US", "id": "96003", "latitude": 28.629325, "longitude": -81.392827, "name": "Applebee's", "phone_number": "407-475-0207", "state": "FL", "zip_code": "32751"}, {"address": "5377 W. Atlantic Blvd", "city": "Margate", "country": "US", "id": "99095", "latitude": 26.235659, "longitude": -80.197167, "name": "Applebee's", "phone_number": "954-969-0866", "state": "FL", "zip_code": "33063"}, {"address": "1545 Palm Bay Road", "city": "Melbourne", "country": "US", "id": "87083", "latitude": 28.035541, "longitude": -80.625371, "name": "Applebee's", "phone_number": "321-951-4440", "state": "FL", "zip_code": "32905"}, {"address": "3001 W Eaugallie Blvd", "city": "Melbourne", "country": "US", "id": "90062", "latitude": 28.127972, "longitude": -80.672138, "name": "Applebee's", "phone_number": "321-242-8488", "state": "FL", "zip_code": "32934"}, {"address": "100 Sykes Creek Pkwy N.", "city": "Merritt Island", "country": "US", "id": "88023", "latitude": 28.358266, "longitude": -80.682961, "name": "Applebee's", "phone_number": "321-455-9898", "state": "FL", "zip_code": "32953"}, {"address": "20405 S. Dixie Hwy.", "city": "Miami", "country": "US", "id": "97034", "latitude": 25.577394, "longitude": -80.3706563, "name": "Applebee's", "phone_number": "786-293-9406", "state": "FL", "zip_code": "33189"}, {"address": "9815 N.W. 41st Street", "city": "Miami", "country": "US", "id": "91099", "latitude": 25.81212, "longitude": -80.356541, "name": "Applebee's", "phone_number": "305-716-4942", "state": "FL", "zip_code": "33178"}, {"address": "8670 Hwy. 98 West", "city": "Miramar Beach", "country": "US", "id": "86063", "latitude": 30.379483, "longitude": -86.320693, "name": "Applebee's", "phone_number": "850-267-3055", "state": "FL", "zip_code": "32550"}, {"address": "5082 Airport Pulling Rd., N.", "city": "Naples", "country": "US", "id": "89090", "latitude": 26.210052, "longitude": -81.767668, "name": "Applebee's", "phone_number": "239-434-7744", "state": "FL", "zip_code": "34105"}, {"address": "8537 Little Road", "city": "New Port Richey", "country": "US", "id": "93048", "latitude": 28.281601, "longitude": -82.67642, "name": "Applebee's", "phone_number": "727-817-1000", "state": "FL", "zip_code": "34654"}, {"address": "15151 N. Cleveland Avenue", "city": "North Fort Myers", "country": "US", "id": "88054", "latitude": 26.685444, "longitude": -81.902293, "name": "Applebee's", "phone_number": "239-995-7999", "state": "FL", "zip_code": "33903"}, {"address": "17500 Tamiami Trail", "city": "North Port", "country": "US", "id": "75004", "latitude": 27.035764, "longitude": -82.214702, "name": "Applebee's", "phone_number": "941-423-1504", "state": "FL", "zip_code": "34287"}, {"address": "2615 SW 19th Ave. Rd.", "city": "Ocala", "country": "US", "id": "97074", "latitude": 29.17649, "longitude": -82.15802, "name": "Applebee's", "phone_number": "352-622-4499", "state": "FL", "zip_code": "34471"}, {"address": "1210 Highway 70 East", "city": "Okeechobee", "country": "US", "id": "77009", "latitude": 27.243872, "longitude": -80.818056, "name": "Applebee's", "phone_number": "863-357-0141", "state": "FL", "zip_code": "34972"}, {"address": "4016 Tampa Road", "city": "Oldsmar", "country": "US", "id": "98017", "latitude": 28.035268, "longitude": -82.656479, "name": "Applebee's", "phone_number": "813-855-4575", "state": "FL", "zip_code": "34677"}, {"address": "2599 Enterprise Road", "city": "Orange City", "country": "US", "id": "90023", "latitude": 28.914608, "longitude": -81.293111, "name": "Applebee's", "phone_number": "386-774-5225", "state": "FL", "zip_code": "32763"}, {"address": "11030 S International Drive", "city": "Orlando", "country": "US", "id": "76090", "latitude": 28.419497, "longitude": -81.460996, "name": "Applebee's", "phone_number": "(407) 985-2365", "state": "FL", "zip_code": "32821"}, {"address": "12103 Collegiate Way", "city": "Orlando", "country": "US", "id": "88064", "latitude": 28.597203, "longitude": -81.210786, "name": "Applebee's", "phone_number": "407-282-2055", "state": "FL", "zip_code": "32817"}, {"address": "13351 SR 535", "city": "Orlando", "country": "US", "id": "76075", "latitude": 28.37238, "longitude": -81.502915, "name": "Applebee's", "phone_number": "321-395-4074", "state": "FL", "zip_code": "32821"}, {"address": "13500 John Young Parkway", "city": "Orlando", "country": "US", "id": "75027", "latitude": 28.370823, "longitude": -81.426442, "name": "Applebee's", "phone_number": "407-206-5039", "state": "FL", "zip_code": "32837"}, {"address": "2823 S. Orange Ave", "city": "Orlando", "country": "US", "id": "77012", "latitude": 28.51131, "longitude": -81.375321, "name": "Applebee's", "phone_number": "407-420-2940", "state": "FL", "zip_code": "32806"}, {"address": "6324 N. International Dr", "city": "Orlando", "country": "US", "id": "77066", "latitude": 28.460302, "longitude": -81.46792, "name": "Applebee's", "phone_number": "407-730-3564", "state": "FL", "zip_code": "32819"}, {"address": "2503 S. Kirkman Rd.", "city": "Orlando", "country": "US", "id": "78049", "latitude": 28.515791, "longitude": -81.458316, "name": "Applebee's", "phone_number": "(407) 704-6750", "state": "FL", "zip_code": "32811"}, {"address": "150 Williamson Blvd", "city": "Ormond Beach", "country": "US", "id": "91028", "latitude": 29.254957, "longitude": -81.113664, "name": "Applebee's", "phone_number": "386-672-0733", "state": "FL", "zip_code": "32174"}, {"address": "678 West 23rd Street", "city": "Panama City", "country": "US", "id": "86073", "latitude": 30.190136, "longitude": -85.669952, "name": "Applebee's", "phone_number": "850-872-9888", "state": "FL", "zip_code": "32405"}, {"address": "10071 Hutchison Blvd", "city": "Panama City Beach", "country": "US", "id": "94038", "latitude": 30.183409, "longitude": -85.808386, "name": "Applebee's", "phone_number": "850-234-3600", "state": "FL", "zip_code": "32407"}, {"address": "10135 Pines Blvd.", "city": "Pembroke Pines", "country": "US", "id": "88060", "latitude": 26.008776, "longitude": -80.281636, "name": "Applebee's", "phone_number": "954-438-3370", "state": "FL", "zip_code": "33026"}, {"address": "165 E Nine Mile Road", "city": "Pensacola", "country": "US", "id": "90028", "latitude": 30.532465, "longitude": -87.266101, "name": "Applebee's", "phone_number": "850-478-9007", "state": "FL", "zip_code": "32534"}, {"address": "5091 Bayou Blvd.", "city": "Pensacola", "country": "US", "id": "85020", "latitude": 30.473438, "longitude": -87.213133, "name": "Applebee's", "phone_number": "850-479-9208", "state": "FL", "zip_code": "32503"}, {"address": "4000 Park Blvd.", "city": "Pinellas Park", "country": "US", "id": "94082", "latitude": 27.83874, "longitude": -82.688061, "name": "Applebee's", "phone_number": "727-544-1100", "state": "FL", "zip_code": "33781"}, {"address": "1204 Townsgate Ct.", "city": "Plant City", "country": "US", "id": "96063", "latitude": 28.0254573469388, "longitude": -82.1498595918367, "name": "Applebee's", "phone_number": "813-719-1500", "state": "FL", "zip_code": "33563"}, {"address": "19010 Murdock Circle", "city": "Port Charlotte", "country": "US", "id": "90090", "latitude": 27.010575, "longitude": -82.139822, "name": "Applebee's", "phone_number": "941-766-0666", "state": "FL", "zip_code": "33948"}, {"address": "24467 Sandhill Blvd", "city": "Port Charlotte", "country": "US", "id": "76080", "latitude": 27.021569, "longitude": -82.045182, "name": "Applebee's", "phone_number": "941-235-9184", "state": "FL", "zip_code": "33983"}, {"address": "1390 Dunlawton Avenue", "city": "Port Orange", "country": "US", "id": "91078", "latitude": 29.119823, "longitude": -81.016879, "name": "Applebee's", "phone_number": "386-761-2222", "state": "FL", "zip_code": "32127"}, {"address": "10501 South U.S. Highway 1", "city": "Port Saint Lucie", "country": "US", "id": "85060", "latitude": 27.272519, "longitude": -80.290011, "name": "Applebee's", "phone_number": "772-337-0408", "state": "FL", "zip_code": "34952"}, {"address": "10243 Big Bend Road", "city": "Riverview", "country": "US", "id": "75066", "latitude": 27.7916831060449, "longitude": -82.3402347730576, "name": "Applebee's", "phone_number": "813-236-9200", "state": "FL", "zip_code": "33578"}, {"address": "100 U.S. Hwy 441", "city": "Royal Palm Beach", "country": "US", "id": "91088", "latitude": 26.681342, "longitude": -80.201319, "name": "Applebee's", "phone_number": "561-791-2240", "state": "FL", "zip_code": "33414"}, {"address": "5490 Clark Rd.", "city": "Sarasota", "country": "US", "id": "96083", "latitude": 27.268561, "longitude": -82.460987, "name": "Applebee's", "phone_number": "941-925-2595", "state": "FL", "zip_code": "34233"}, {"address": "5550 Fruitville Road", "city": "Sarasota", "country": "US", "id": "88056", "latitude": 27.337333, "longitude": -82.457811, "name": "Applebee's", "phone_number": "941-379-2260", "state": "FL", "zip_code": "34232"}, {"address": "3255 University Parkway", "city": "Sarasota", "country": "US", "id": "91053", "latitude": 27.389173, "longitude": -82.503142, "name": "Applebee's", "phone_number": "941-355-1400", "state": "FL", "zip_code": "34243"}, {"address": "7995 113th Street", "city": "Seminole", "country": "US", "id": "78057", "latitude": 27.8451383, "longitude": -82.7948917, "name": "Applebee's", "phone_number": "727-258-7079", "state": "FL", "zip_code": "33772"}, {"address": "10601 County Line Road", "city": "Spring Hill", "country": "US", "id": "76024", "latitude": 28.434359, "longitude": -82.542541, "name": "Applebee's", "phone_number": "352-666-0027", "state": "FL", "zip_code": "34609"}, {"address": "4651 Commercial Way", "city": "Spring Hill", "country": "US", "id": "93089", "latitude": 28.496026, "longitude": -82.596027, "name": "Applebee's", "phone_number": "352-597-6900", "state": "FL", "zip_code": "34606"}, {"address": "225 State Road 312", "city": "St. Augustine", "country": "US", "id": "87069", "latitude": 29.866318, "longitude": -81.320887, "name": "Applebee's", "phone_number": "904-825-4099", "state": "FL", "zip_code": "32086"}, {"address": "2901 66th Street North", "city": "St. Petersburg", "country": "US", "id": "75084", "latitude": 27.798225, "longitude": -82.728033, "name": "Applebee's", "phone_number": "727-343-1070", "state": "FL", "zip_code": "33710"}, {"address": "4700 4th Street North", "city": "St Petersburg", "country": "US", "id": "89065", "latitude": 27.815115, "longitude": -82.638905, "name": "Applebee's", "phone_number": "727-522-9400", "state": "FL", "zip_code": "33703"}, {"address": "2901 66th Street North", "city": "St. Petersburg", "country": "US", "id": "75084", "latitude": 27.798225, "longitude": -82.728033, "name": "Applebee's", "phone_number": "727-343-1070", "state": "FL", "zip_code": "33710"}, {"address": "4700 4th Street North", "city": "St Petersburg", "country": "US", "id": "89065", "latitude": 27.815115, "longitude": -82.638905, "name": "Applebee's", "phone_number": "727-522-9400", "state": "FL", "zip_code": "33703"}, {"address": "12719 W Sunrise Blvd.", "city": "Sunrise", "country": "US", "id": "88089", "latitude": 26.1453, "longitude": -80.323525, "name": "Applebee's", "phone_number": "954-846-2220", "state": "FL", "zip_code": "33323"}, {"address": "1355 Apalachee Pkwy", "city": "Tallahassee", "country": "US", "id": "76028", "latitude": 30.435825, "longitude": -84.260623, "name": "Applebee's", "phone_number": "850-222-1254", "state": "FL", "zip_code": "32301"}, {"address": "1388 Capital Circle NW", "city": "Tallahassee", "country": "US", "id": "75009", "latitude": 30.457405, "longitude": -84.361745, "name": "Applebee's", "phone_number": "850-574-1444", "state": "FL", "zip_code": "32304"}, {"address": "4040 Lagniappe Way", "city": "Tallahassee", "country": "US", "id": "78051", "latitude": 30.464026, "longitude": -84.215741, "name": "Applebee's", "phone_number": "850-765-0228", "state": "FL", "zip_code": "32317"}, {"address": "6005 N. University Drive", "city": "Tamarac", "country": "US", "id": "75006", "latitude": 26.198703, "longitude": -80.253374, "name": "Applebee's", "phone_number": "954-722-4244", "state": "FL", "zip_code": "33321"}, {"address": "10606 Sheldon Road", "city": "Tampa", "country": "US", "id": "94045", "latitude": 28.045449, "longitude": -82.583384, "name": "Applebee's", "phone_number": "813-926-6660", "state": "FL", "zip_code": "33626"}, {"address": "3920 W. Hillsborough Ave.", "city": "Tampa", "country": "US", "id": "98059", "latitude": 27.995639, "longitude": -82.509749, "name": "Applebee's", "phone_number": "813-872-9666", "state": "FL", "zip_code": "33614"}, {"address": "4411 W. Gandy Blvd.", "city": "Tampa", "country": "US", "id": "78024", "latitude": 27.89368, "longitude": -82.521106, "name": "Applebee's", "phone_number": "813-252-7951", "state": "FL", "zip_code": "33611"}, {"address": "5779 East Fowler Avenue", "city": "Temple Terrace", "country": "US", "id": "87068", "latitude": 28.053935, "longitude": -82.391658, "name": "Applebee's", "phone_number": "813-989-2000", "state": "FL", "zip_code": "33617"}, {"address": "1009 Bichara Blvd.", "city": "The Villages", "country": "US", "id": "95052", "latitude": 28.939423, "longitude": -81.945154, "name": "Applebee's", "phone_number": "352-753-0000", "state": "FL", "zip_code": "32159"}, {"address": "1905 S.R. 60 East", "city": "Valrico", "country": "US", "id": "99002", "latitude": 27.937336, "longitude": -82.255091, "name": "Applebee's", "phone_number": "813-571-7444", "state": "FL", "zip_code": "33594"}, {"address": "4329 South Tamiami Trail", "city": "Venice", "country": "US", "id": "89029", "latitude": 27.05036, "longitude": -82.388821, "name": "Applebee's", "phone_number": "941-497-7740", "state": "FL", "zip_code": "34293"}, {"address": "5335 20th Street", "city": "Vero Beach", "country": "US", "id": "91013", "latitude": 27.63827, "longitude": -80.440761, "name": "Applebee's", "phone_number": "772-978-0551", "state": "FL", "zip_code": "32966"}, {"address": "28422 State Road 54", "city": "Wesley Chapel", "country": "US", "id": "95036", "latitude": 28.236811, "longitude": -82.345862, "name": "Applebee's", "phone_number": "813-994-6444", "state": "FL", "zip_code": "33543"}, {"address": "1975 North Military Trail", "city": "West Palm Beach", "country": "US", "id": "78064", "latitude": 26.7060815, "longitude": -80.1117473, "name": "Applebee's", "phone_number": "(561) 683-0709", "state": "FL", "zip_code": "33409"}, {"address": "201 Cypress Garden Boulevard", "city": "Winter Haven", "country": "US", "id": "94035", "latitude": 28.004431, "longitude": -81.729581, "name": "Applebee's", "phone_number": "863-294-7777", "state": "FL", "zip_code": "33880"}, {"address": "637 Westover Blvd.", "city": "Albany", "country": "US", "id": "86023", "latitude": 31.613002, "longitude": -84.223719, "name": "Applebee's", "phone_number": "229-439-0040", "state": "GA", "zip_code": "31707"}, {"address": "2226 West Broad Street", "city": "Athens", "country": "US", "id": "89078", "latitude": 33.9495551020408, "longitude": -83.4105314285714, "name": "Applebee's", "phone_number": "706-543-1339", "state": "GA", "zip_code": "30606"}, {"address": "2728 New Spring Road S.E.", "city": "Atlanta", "country": "US", "id": "88049", "latitude": 33.884634, "longitude": -84.473175, "name": "Applebee's", "phone_number": "770-432-1974", "state": "GA", "zip_code": "30339"}, {"address": "3690 Cascade Road", "city": "Atlanta", "country": "US", "id": "97084", "latitude": 33.723068, "longitude": -84.508979, "name": "Applebee's", "phone_number": "404-691-6480", "state": "GA", "zip_code": "30331"}, {"address": "2125 Windsor Spring Road", "city": "Augusta", "country": "US", "id": "85011", "latitude": 33.408559, "longitude": -82.030022, "name": "Applebee's", "phone_number": "706-796-0717", "state": "GA", "zip_code": "30906"}, {"address": "3117 Washington Road", "city": "Augusta", "country": "US", "id": "84029", "latitude": 33.514163, "longitude": -82.05506, "name": "Applebee's", "phone_number": "706-868-5445", "state": "GA", "zip_code": "30907"}, {"address": "544 Carl-Bethlehem Road", "city": "Bethlehem", "country": "US", "id": "78025", "latitude": 33.942658, "longitude": -83.754272, "name": "Applebee's", "phone_number": "678-963-5360", "state": "GA", "zip_code": "30620"}, {"address": "177 Altama Connector", "city": "Brunswick", "country": "US", "id": "88057", "latitude": 31.213464, "longitude": -81.48993, "name": "Applebee's", "phone_number": "912-262-5800", "state": "GA", "zip_code": "31525"}, {"address": "1008 Highway 53 SE", "city": "Calhoun", "country": "US", "id": "77057", "latitude": 34.46888, "longitude": -84.915218, "name": "Applebee's", "phone_number": "706-979-7402", "state": "GA", "zip_code": "30701"}, {"address": "1421 Riverstone Parkway", "city": "Canton", "country": "US", "id": "93047", "latitude": 34.251124, "longitude": -84.474614, "name": "Applebee's", "phone_number": "770-345-1161", "state": "GA", "zip_code": "30114"}, {"address": "1105 Southpark Street", "city": "Carrollton", "country": "US", "id": "92045", "latitude": 33.560602, "longitude": -85.073861, "name": "Applebee's", "phone_number": "770-836-8111", "state": "GA", "zip_code": "30117"}, {"address": "185 Cherokee Place", "city": "Cartersville", "country": "US", "id": "91007", "latitude": 34.170662, "longitude": -84.784328, "name": "Applebee's", "phone_number": "770-382-2822", "state": "GA", "zip_code": "30121"}, {"address": "2513 Airport Thruway", "city": "Columbus", "country": "US", "id": "85027", "latitude": 32.5203, "longitude": -84.957213, "name": "Applebee's", "phone_number": "706-494-0977", "state": "GA", "zip_code": "31904"}, {"address": "3229 Gentian Boulevard", "city": "Columbus", "country": "US", "id": "84035", "latitude": 32.505994, "longitude": -84.939257, "name": "Applebee's", "phone_number": "706-563-6116", "state": "GA", "zip_code": "31907"}, {"address": "105 E. Ridgeway Road", "city": "Commerce", "country": "US", "id": "98039", "latitude": 34.256513, "longitude": -83.466839, "name": "Applebee's", "phone_number": "706-336-0069", "state": "GA", "zip_code": "30529"}, {"address": "1448 Dogwood Dr.", "city": "Conyers", "country": "US", "id": "99013", "latitude": 33.65046, "longitude": -83.996626, "name": "Applebee's", "phone_number": "770-922-9464", "state": "GA", "zip_code": "30013"}, {"address": "5176 Hwy. 278 N.W.", "city": "Covington", "country": "US", "id": "97098", "latitude": 33.605558, "longitude": -83.871712, "name": "Applebee's", "phone_number": "770-787-0706", "state": "GA", "zip_code": "30014"}, {"address": "504 Lakeland Plaza", "city": "Cumming", "country": "US", "id": "87062", "latitude": 34.184785, "longitude": -84.141276, "name": "Applebee's", "phone_number": "770-887-1922", "state": "GA", "zip_code": "30040"}, {"address": "1322 West Walnut Avenue", "city": "Dalton", "country": "US", "id": "86036", "latitude": 34.760338, "longitude": -84.994544, "name": "Applebee's", "phone_number": "706-278-5776", "state": "GA", "zip_code": "30720"}, {"address": "31 Bethel Drive", "city": "Dawsonville", "country": "US", "id": "99035", "latitude": 34.34591, "longitude": -84.049247, "name": "Applebee's", "phone_number": "706-216-2400", "state": "GA", "zip_code": "30534"}, {"address": "4705 Memorial Drive", "city": "Decatur", "country": "US", "id": "97077", "latitude": 33.783041, "longitude": -84.236067, "name": "Applebee's", "phone_number": "404-294-4610", "state": "GA", "zip_code": "30032"}, {"address": "6915 Douglas Blvd.", "city": "Douglasville", "country": "US", "id": "95037", "latitude": 33.72643, "longitude": -84.757529, "name": "Applebee's", "phone_number": "770-942-8280", "state": "GA", "zip_code": "30135"}, {"address": "2004 Veterans Blvd", "city": "Dublin", "country": "US", "id": "84076", "latitude": 32.540748, "longitude": -82.94895, "name": "Applebee's", "phone_number": "478-275-9480", "state": "GA", "zip_code": "31021"}, {"address": "2095 Pleasant Hill Rd.", "city": "Duluth", "country": "US", "id": "85024", "latitude": 33.957226, "longitude": -84.133928, "name": "Applebee's", "phone_number": "770-497-8723", "state": "GA", "zip_code": "30096"}, {"address": "505 N. Belair Road", "city": "Evans", "country": "US", "id": "84092", "latitude": 33.53383, "longitude": -82.129583, "name": "Applebee's", "phone_number": "706-650-2009", "state": "GA", "zip_code": "30809"}, {"address": "792 Glynn St N", "city": "Fayetteville", "country": "US", "id": "95008", "latitude": 33.467203, "longitude": -84.448308, "name": "Applebee's", "phone_number": "770-461-7368", "state": "GA", "zip_code": "30214"}, {"address": "1492 E. Oglethorpe Hwy.", "city": "Flemington", "country": "US", "id": "84016", "latitude": 31.857186, "longitude": -81.570756, "name": "Applebee's", "phone_number": "912-369-4909", "state": "GA", "zip_code": "31313"}, {"address": "2219 Battlefield Parkway", "city": "Ft. Oglethorpe", "country": "US", "id": "75048", "latitude": 34.945677, "longitude": -85.226968, "name": "Applebee's", "phone_number": "706-858-6654", "state": "GA", "zip_code": "30742"}, {"address": "1705 Browns Bridge Road", "city": "Gainesville", "country": "US", "id": "87015", "latitude": 34.284951, "longitude": -83.84416, "name": "Applebee's", "phone_number": "770-535-1300", "state": "GA", "zip_code": "30501"}, {"address": "1647 North Expressway", "city": "Griffin", "country": "US", "id": "94032", "latitude": 33.277071, "longitude": -84.292159, "name": "Applebee's", "phone_number": "770-227-2221", "state": "GA", "zip_code": "30223"}, {"address": "4015 Gateway Blvd", "city": "Grovetown", "country": "US", "id": "77053", "latitude": 33.481139, "longitude": -82.197829, "name": "Applebee's", "phone_number": "706-869-7795", "state": "GA", "zip_code": "30813"}, {"address": "5149 Jimmy Lee Smith Parkway", "city": "Hiram", "country": "US", "id": "99066", "latitude": 33.888529, "longitude": -84.743439, "name": "Applebee's", "phone_number": "770-222-8382", "state": "GA", "zip_code": "30141"}, {"address": "6727 Tara Blvd", "city": "Jonesboro", "country": "US", "id": "98092", "latitude": 33.570639, "longitude": -84.37263, "name": "Applebee's", "phone_number": "770-968-1204", "state": "GA", "zip_code": "30236"}, {"address": "2445 Mall Boulevard", "city": "Kennesaw", "country": "US", "id": "86010", "latitude": 34.014842, "longitude": -84.561375, "name": "Applebee's", "phone_number": "770-427-7196", "state": "GA", "zip_code": "30144"}, {"address": "113 The Lake Blvd", "city": "Kingsland", "country": "US", "id": "90004", "latitude": 30.788931, "longitude": -81.651278, "name": "Applebee's", "phone_number": "912-729-9515", "state": "GA", "zip_code": "31548"}, {"address": "1524 Lafayette Parkway", "city": "LaGrange", "country": "US", "id": "97046", "latitude": 33.0423752631579, "longitude": -84.9779105263158, "name": "Applebee's", "phone_number": "706-242-9189", "state": "GA", "zip_code": "30241"}, {"address": "655 Duluth Hwy", "city": "Lawrenceville", "country": "US", "id": "85076", "latitude": 33.9659506048367, "longitude": -84.0099433266017, "name": "Applebee's", "phone_number": "770-339-9752", "state": "GA", "zip_code": "30046"}, {"address": "550 Thornton Road", "city": "Lithia Springs", "country": "US", "id": "98011", "latitude": 33.790552, "longitude": -84.624644, "name": "Applebee's", "phone_number": "678-398-0888", "state": "GA", "zip_code": "30122"}, {"address": "2945 Stonecrest Circle", "city": "Lithonia", "country": "US", "id": "96082", "latitude": 33.698316, "longitude": -84.090668, "name": "Applebee's", "phone_number": "678-526-0867", "state": "GA", "zip_code": "30038"}, {"address": "4789 Atlanta Hwy", "city": "Loganville", "country": "US", "id": "78023", "latitude": 33.832476, "longitude": -83.882139, "name": "Applebee's", "phone_number": "770-255-3896", "state": "GA", "zip_code": "30052"}, {"address": "2574 Riverside Drive", "city": "Macon", "country": "US", "id": "84052", "latitude": 32.871519, "longitude": -83.661737, "name": "Applebee's", "phone_number": "478-741-0050", "state": "GA", "zip_code": "31204"}, {"address": "3652 Eisenhower Pkwy", "city": "Macon", "country": "US", "id": "84057", "latitude": 32.814866, "longitude": -83.691099, "name": "Applebee's", "phone_number": "478-781-5555", "state": "GA", "zip_code": "31206"}, {"address": "6235 Zebulon Road", "city": "Macon", "country": "US", "id": "78031", "latitude": 32.882547, "longitude": -83.76595, "name": "Applebee's", "phone_number": "478-474-7055", "state": "GA", "zip_code": "31210"}, {"address": "475 Franklin Road", "city": "Marietta", "country": "US", "id": "85012", "latitude": 33.940174, "longitude": -84.507445, "name": "Applebee's", "phone_number": "770-423-0045", "state": "GA", "zip_code": "30067"}, {"address": "815 Industrial Blvd.", "city": "McDonough", "country": "US", "id": "94053", "latitude": 33.426081, "longitude": -84.177328, "name": "Applebee's", "phone_number": "678-432-3023", "state": "GA", "zip_code": "30253"}, {"address": "106 Roberson Mill Road", "city": "Milledgeville", "country": "US", "id": "84083", "latitude": 33.108043, "longitude": -83.25552, "name": "Applebee's", "phone_number": "478-453-8355", "state": "GA", "zip_code": "31061"}, {"address": "145 Martin Luther King Jr. Blvd.", "city": "Monroe", "country": "US", "id": "75065", "latitude": 33.793717, "longitude": -83.743083, "name": "Applebee's", "phone_number": "770-267-7692", "state": "GA", "zip_code": "30655"}, {"address": "421 Veteran\u00c2\u00bfs Pkwy N.", "city": "Moultrie", "country": "US", "id": "94083", "latitude": 31.188175, "longitude": -83.762479, "name": "Applebee's", "phone_number": "229-873-9720", "state": "GA", "zip_code": "31788"}, {"address": "971 Bullsboro Drive", "city": "Newnan", "country": "US", "id": "91056", "latitude": 33.396075, "longitude": -84.745106, "name": "Applebee's", "phone_number": "770-251-2285", "state": "GA", "zip_code": "30265"}, {"address": "100 Valley Drive", "city": "Perry", "country": "US", "id": "84081", "latitude": 32.472184, "longitude": -83.745395, "name": "Applebee's", "phone_number": "478-988-0076", "state": "GA", "zip_code": "31069"}, {"address": "160 Tanger Outlets Pkwy.", "city": "Pooler", "country": "US", "id": "78039", "latitude": 32.134878, "longitude": -81.245958, "name": "Applebee's", "phone_number": "912-450-1388", "state": "GA", "zip_code": "31322"}, {"address": "826 Turner McCall Blvd.", "city": "Rome", "country": "US", "id": "86082", "latitude": 34.259981, "longitude": -85.167977, "name": "Applebee's", "phone_number": "706-235-6133", "state": "GA", "zip_code": "30161"}, {"address": "11120 Abercorn", "city": "Savannah", "country": "US", "id": "84038", "latitude": 31.980366, "longitude": -81.142732, "name": "Applebee's", "phone_number": "912-920-7966", "state": "GA", "zip_code": "31419"}, {"address": "587 Al Henderson Blvd.", "city": "Savannah", "country": "US", "id": "84019", "latitude": 32.006696, "longitude": -81.276621, "name": "Applebee's", "phone_number": "912-920-9199", "state": "GA", "zip_code": "31419"}, {"address": "1925 Highway 124", "city": "Snellville", "country": "US", "id": "89097", "latitude": 33.874445, "longitude": -84.014263, "name": "Applebee's", "phone_number": "770-979-1947", "state": "GA", "zip_code": "30078"}, {"address": "3676 Highway 138 S.E.", "city": "Stockbridge", "country": "US", "id": "89057", "latitude": 33.552072, "longitude": -84.271286, "name": "Applebee's", "phone_number": "770-507-7201", "state": "GA", "zip_code": "30281"}, {"address": "5200 Highway 78", "city": "Stone Mountain", "country": "US", "id": "85062", "latitude": 33.823522, "longitude": -84.109393, "name": "Applebee's", "phone_number": "770-879-8549", "state": "GA", "zip_code": "30087"}, {"address": "4685 Nelson Brogdon Blvd", "city": "Sugar Hill", "country": "US", "id": "95083", "latitude": 34.102081, "longitude": -84.020607, "name": "Applebee's", "phone_number": "678-482-0502", "state": "GA", "zip_code": "30518"}, {"address": "13765 US Highway 19 S", "city": "Thomasville", "country": "US", "id": "97055", "latitude": 30.837201, "longitude": -83.944618, "name": "Applebee's", "phone_number": "229-227-0811", "state": "GA", "zip_code": "31792"}, {"address": "808 West 7th Street", "city": "Tifton", "country": "US", "id": "93096", "latitude": 31.449973, "longitude": -83.526947, "name": "Applebee's", "phone_number": "229-382-2337", "state": "GA", "zip_code": "31794"}, {"address": "1065 South Big A Road", "city": "Toccoa", "country": "US", "id": "89047", "latitude": 34.566192, "longitude": -83.299474, "name": "Applebee's", "phone_number": "706-282-5016", "state": "GA", "zip_code": "30577"}, {"address": "4353 Lawrenceville Highway", "city": "Tucker", "country": "US", "id": "97083", "latitude": 33.856468, "longitude": -84.207922, "name": "Applebee's", "phone_number": "770-938-6459", "state": "GA", "zip_code": "30084"}, {"address": "1301 St. Augustine Road", "city": "Valdosta", "country": "US", "id": "88067", "latitude": 30.843139, "longitude": -83.326452, "name": "Applebee's", "phone_number": "229-241-9933", "state": "GA", "zip_code": "31601"}, {"address": "3254 Inner Perimeter Rd.", "city": "Valdosta", "country": "US", "id": "98022", "latitude": 30.8825260257256, "longitude": -83.2908298713722, "name": "Applebee's", "phone_number": "229-257-0003", "state": "GA", "zip_code": "31602"}, {"address": "314 Russell Parkway", "city": "Warner Robins", "country": "US", "id": "84043", "latitude": 32.59438, "longitude": -83.628704, "name": "Applebee's", "phone_number": "478-922-3838", "state": "GA", "zip_code": "31088"}, {"address": "1901 Memorial Drive", "city": "Waycross", "country": "US", "id": "89014", "latitude": 31.204202, "longitude": -82.333925, "name": "Applebee's", "phone_number": "912-285-9359", "state": "GA", "zip_code": "31501"}, {"address": "901 Ridgewalk Parkway", "city": "Woodstock", "country": "US", "id": "78005", "latitude": 34.121309, "longitude": -84.52353, "name": "Applebee's", "phone_number": "678-626-3677", "state": "GA", "zip_code": "30188"}, {"address": "98-1005 Moana Lua Road", "city": "Aiea", "country": "US", "id": "20003", "latitude": 21.3848597, "longitude": -157.9404304, "name": "Applebee's", "phone_number": "(808) 200-7440", "state": "HI", "zip_code": "96701"}, {"address": "91-1401 Fort Weaver Road", "city": "Ewa Beach", "country": "US", "id": "12038", "latitude": 21.334298, "longitude": -158.0246819, "name": "Applebee's", "phone_number": "(808) 685-5000", "state": "HI", "zip_code": "96706"}, {"address": "91-5431 Kapolei Parkway", "city": "Kapolei", "country": "US", "id": "20002", "latitude": 21.3363089, "longitude": -158.0520462, "name": "Applebee's", "phone_number": "(808) 670-2562", "state": "HI", "zip_code": "96707"}, {"address": "3741 8th Street SW", "city": "Altoona", "country": "US", "id": "95054", "latitude": 41.644795, "longitude": -93.507579, "name": "Applebee's", "phone_number": "515-967-8646", "state": "IA", "zip_code": "50009"}, {"address": "105 Chestnut", "city": "Ames", "country": "US", "id": "87093", "latitude": 42.0085, "longitude": -93.6108, "name": "Applebee's", "phone_number": "515-233-6452", "state": "IA", "zip_code": "50010"}, {"address": "1001 E. First Street", "city": "Ankeny", "country": "US", "id": "91084", "latitude": 41.731387, "longitude": -93.583287, "name": "Applebee's", "phone_number": "515-965-3444", "state": "IA", "zip_code": "50021"}, {"address": "116 S Roosevelt", "city": "Burlington", "country": "US", "id": "90043", "latitude": 40.808999, "longitude": -91.140745, "name": "Applebee's", "phone_number": "319-752-7744", "state": "IA", "zip_code": "52601"}, {"address": "6301 University Avenue", "city": "Cedar Falls", "country": "US", "id": "87047", "latitude": 42.512451, "longitude": -92.431307, "name": "Applebee's", "phone_number": "319-266-8646", "state": "IA", "zip_code": "50613"}, {"address": "2645 Edgewood Road", "city": "Cedar Rapids", "country": "US", "id": "95059", "latitude": 41.951588, "longitude": -91.715406, "name": "Applebee's", "phone_number": "319-396-6767", "state": "IA", "zip_code": "52404"}, {"address": "303 Collins Road N.E.", "city": "Cedar Rapids", "country": "US", "id": "89030", "latitude": 42.02748, "longitude": -91.632573, "name": "Applebee's", "phone_number": "319-393-9595", "state": "IA", "zip_code": "52402"}, {"address": "2414 Lincoln Way", "city": "Clinton", "country": "US", "id": "92066", "latitude": 41.816059, "longitude": -90.243823, "name": "Applebee's", "phone_number": "563-242-8646", "state": "IA", "zip_code": "52732"}, {"address": "11410 Forest Road", "city": "Clive", "country": "US", "id": "88048", "latitude": 41.601161, "longitude": -93.774476, "name": "Applebee's", "phone_number": "515-633-8646", "state": "IA", "zip_code": "50325"}, {"address": "200 12th Avenue Center", "city": "Coralville", "country": "US", "id": "93031", "latitude": 41.67505, "longitude": -91.581795, "name": "Applebee's", "phone_number": "319-358-1986", "state": "IA", "zip_code": "52241"}, {"address": "3000 Dial Drive", "city": "Council Bluffs", "country": "US", "id": "94025", "latitude": 41.230285, "longitude": -95.850198, "name": "Applebee's", "phone_number": "712-366-1250", "state": "IA", "zip_code": "51501"}, {"address": "3005 W. Kimberly Road", "city": "Davenport", "country": "US", "id": "99088", "latitude": 41.559632, "longitude": -90.620557, "name": "Applebee's", "phone_number": "563-445-8646", "state": "IA", "zip_code": "52806"}, {"address": "3838 Elmore Avenue", "city": "Davenport", "country": "US", "id": "88036", "latitude": 41.556918, "longitude": -90.527664, "name": "Applebee's", "phone_number": "563-355-9643", "state": "IA", "zip_code": "52807"}, {"address": "3900 Merle Hay Road", "city": "Des Moines", "country": "US", "id": "90050", "latitude": 41.632161, "longitude": -93.698283, "name": "Applebee's", "phone_number": "515-251-8646", "state": "IA", "zip_code": "50310"}, {"address": "6301 S E 14th Street", "city": "Des Moines", "country": "US", "id": "88092", "latitude": 41.527205, "longitude": -93.59603, "name": "Applebee's", "phone_number": "515-974-8646", "state": "IA", "zip_code": "50320"}, {"address": "1395 Associates Drive", "city": "Dubuque", "country": "US", "id": "94060", "latitude": 42.496139, "longitude": -90.739218, "name": "Applebee's", "phone_number": "563-583-3131", "state": "IA", "zip_code": "52002"}, {"address": "2810 5TH AVENUE SOUTH", "city": "Fort Dodge", "country": "US", "id": "92044", "latitude": 42.501816, "longitude": -94.159684, "name": "Applebee's", "phone_number": "515-576-7881", "state": "IA", "zip_code": "50501"}, {"address": "3101 S. Center Street", "city": "Marshalltown", "country": "US", "id": "92035", "latitude": 42.008253, "longitude": -92.913314, "name": "Applebee's", "phone_number": "641-753-7755", "state": "IA", "zip_code": "50158"}, {"address": "3006 Fourth Street SW", "city": "Mason City", "country": "US", "id": "92079", "latitude": 43.148939, "longitude": -93.246314, "name": "Applebee's", "phone_number": "641-424-0026", "state": "IA", "zip_code": "50401"}, {"address": "306 Cleveland St.", "city": "Muscatine", "country": "US", "id": "92011", "latitude": 41.452685, "longitude": -91.029474, "name": "Applebee's", "phone_number": "563-262-0215", "state": "IA", "zip_code": "52761"}, {"address": "1303 Vaughn Drive", "city": "Ottumwa", "country": "US", "id": "96068", "latitude": 41.019329, "longitude": -92.439168, "name": "Applebee's", "phone_number": "641-683-1711", "state": "IA", "zip_code": "52501"}, {"address": "1600 Washington St", "city": "Pella", "country": "US", "id": "76051", "latitude": 41.410508, "longitude": -92.93251, "name": "Applebee's", "phone_number": "641-620-8646", "state": "IA", "zip_code": "50219"}, {"address": "4555 Southern Hills Dr #106", "city": "Sioux City", "country": "US", "id": "88098", "latitude": 42.441507, "longitude": -96.35123, "name": "Applebee's", "phone_number": "712-276-2226", "state": "IA", "zip_code": "51106"}, {"address": "2780 Crossroads Blvd.", "city": "Waterloo", "country": "US", "id": "97000", "latitude": 42.463079, "longitude": -92.324443, "name": "Applebee's", "phone_number": "319-287-4700", "state": "IA", "zip_code": "50702"}, {"address": "2500 4th Street SW", "city": "Waverly", "country": "US", "id": "75076", "latitude": 42.702302, "longitude": -92.476475, "name": "Applebee's", "phone_number": "319-352-9240", "state": "IA", "zip_code": "50677"}, {"address": "6190 Mills Civic Parkway", "city": "W. Des Moines", "country": "US", "id": "75043", "latitude": 41.559228, "longitude": -93.794327, "name": "Applebee's", "phone_number": "515-225-8646", "state": "IA", "zip_code": "50266"}, {"address": "2810 W. Elder Street", "city": "Boise", "country": "US", "id": "84026", "latitude": 43.574013, "longitude": -116.216018, "name": "Applebee's", "phone_number": "208-344-5630", "state": "ID", "zip_code": "83705"}, {"address": "7845 West Emerald", "city": "Boise", "country": "US", "id": "84079", "latitude": 43.612076, "longitude": -116.279679, "name": "Applebee's", "phone_number": "208-378-1890", "state": "ID", "zip_code": "83704"}, {"address": "280 W. Hanley Ave.", "city": "Coeur d&#39;Alene", "country": "US", "id": "84054", "latitude": 47.729549, "longitude": -116.79072, "name": "Applebee's", "phone_number": "208-762-1000", "state": "ID", "zip_code": "83815"}, {"address": "7025 N. Glenwood Street", "city": "Garden City", "country": "US", "id": "85004", "latitude": 43.668344, "longitude": -116.279851, "name": "Applebee's", "phone_number": "208-853-2330", "state": "ID", "zip_code": "83714"}, {"address": "635 N. Utah Avenue", "city": "Idaho Falls", "country": "US", "id": "84069", "latitude": 43.497045, "longitude": -112.046958, "name": "Applebee's", "phone_number": "208-528-8985", "state": "ID", "zip_code": "83402"},